[
    {
      "id": 2912872379,
      "name": "Wichita Falls Dental Assistant School",
      "latitude": 33.8648294,
      "longitude": -98.5314255,
      "active_school": "True",
      "city": "Wichita Falls",
      "state": "TX",
      "website": "https://wichitafallsdentalassistant.com",
      "curriculum_id": "DAS"
    },
    {
      "id": 2914092256,
      "name": "Montgomery Dental Assistant School",
      "latitude": 32.3596549,
      "longitude": -86.16226,
      "active_school": "True",
      "city": "Montgomery",
      "state": "AL",
      "website": "https://montgomerydentalassistant.com",
      "curriculum_id": "DAS"
    },
    {
      "id": 2913693670,
      "name": "Abilene Medical Assistant School",
      "latitude": 32.3978287,
      "longitude": -99.7632506,
      "active_school": "True",
      "city": "Abilene",
      "state": "TX",
      "website": "https://abilenemedicalassistant.com",
      "curriculum_id": "MAS"
    },
    {
      "id": 9969865097,
      "name": "Austin Dental Assistant School - Georgetown",
      "latitude": 30.665395109566738,
      "longitude": -97.69098077741496,
      "active_school": "True",
      "city": "Georgetown",
      "state": "TX",
      "website": "https://austindentalassistantschool.com/",
      "curriculum_id": "DAS"
    },
    {
      "id": 8874765743,
      "name": "Fort Worth Medical Assistant School",
      "latitude": 32.8956391,
      "longitude": -97.3038572,
      "active_school": "True",
      "city": "Fort Worth",
      "state": "TX",
      "website": "https://fortworthmedicalassistant.com",
      "curriculum_id": "MAS"
    },
    {
      "id": 11510424394,
      "name": "Fort Worth Dental Assistant School - Meadowbrook",
      "latitude": 32.7456638,
      "longitude": -97.2196571,
      "active_school": "True",
      "city": "Fort Worth",
      "state": "TX",
      "website": "https://fortworthdentalassistant.com",
      "curriculum_id": "DAS"
    },
    {
      "id": 2914846017,
      "name": "Las Vegas Medical Assistant School",
      "latitude": 36.0357469,
      "longitude": -115.0860297,
      "active_school": "True",
      "city": "Las Vegas",
      "state": "NV",
      "website": "https://lasvegasmedicalassistant.com",
      "curriculum_id": "MAS"
    },
    {
      "id": 3053133511,
      "name": "Austin Dental Assistant School - North (Leander)",
      "latitude": 30.5386334,
      "longitude": -97.8472924,
      "active_school": "True",
      "city": "Leander",
      "state": "TX",
      "website": "https://austindentalassistantschool.com",
      "curriculum_id": "DAS"
    },
    {
      "id": 6532767906,
      "name": "Tulsa Medical Assistant School",
      "latitude": 36.05089375525206, 
      "longitude": -95.89730098422699,
      "active_school": "True",
      "city": "Tulsa",
      "state": "OK",
      "website": "https://tulsamedicalassistant.com",
      "curriculum_id": "MAS"
    },
    {
      "id": 2912872370,
      "name": "Tulsa Dental Assistant School",
      "latitude": 36.141836201259395, 
      "longitude": -95.95789239561637 ,
      "active_school": "True",
      "city": "Tulsa",
      "state": "OK",
      "website": "https://tulsadentalassistant.com/",
      "curriculum_id": "DAS"
    },
    {
      "id": 4597728040,
      "name": "San Antonio Dental Assistant School - Northeast",
      "latitude": 29.5877875,
      "longitude": -98.3596424,
      "active_school": "True",
      "city": "San Antonio",
      "state": "TX",
      "website": "https://sanantoniodentalassistantschool.com",
      "curriculum_id": "DAS"
    },
    {
      "id": 2914808247,
      "name": "Austin Dental Assistant School - South (Circle C)",
      "latitude": 30.2028533,
      "longitude": -97.8789204,
      "active_school": "True",
      "city": "Austin",
      "state": "TX",
      "website": "https://austindentalassistantschool.com",
      "curriculum_id": "DAS"
    },
    {
      "id": 2917600636,
      "name": "Baton Rouge Dental Assistant Academy",
      "latitude": 30.4473671,
      "longitude": -91.0921494,
      "active_school": "True",
      "city": "Baton Rouge",
      "state": "LA",
      "website": "https://batonrougedentalassistant.com",
      "curriculum_id": "DAS"
    },
    {
      "id": 2914879375,
      "name": "Gonzales Medical Assistant School",
      "latitude": 30.2169488,
      "longitude": -90.9215002,
      "active_school": "True",
      "city": "Gonzales",
      "state": "LA",
      "website": "https://gonzalesmedicalassistant.com",
      "curriculum_id": "MAS"
    },
    {
      "id": 2969764930,
      "name": "League City Medical Assistant School",
      "latitude": 29.543162860655478, 
      "longitude": -95.05998391791762,
      "active_school": "True",
      "city": "League City",
      "state": "TX",
      "website": "https://leaguecitymedicalassistant.com",
      "curriculum_id": "MAS"
    },
    {
      "id": 2914366797,
      "name": "San Antonio Medical Assistant School - NW",
      "latitude": 29.5270599,
      "longitude": -98.5951209,
      "active_school": "True",
      "city": "San Antonio",
      "state": "TX",
      "website": "https://sanantoniomedicalassistant.com",
      "curriculum_id": "MAS"
    },
    {
      "id": 2914865682,
      "name": "Charlotte Dental Assistant School - North",
      "latitude": 35.1505725,
      "longitude": -80.8414541,
      "active_school": "True",
      "city": "Charlotte",
      "state": "NC",
      "website": "https://charlottedentalassistantschool.com",
      "curriculum_id": "DAS"
    },
    {
      "id": 2914831748,
      "name": "Austin Medical Assistant School - W Braker",
      "latitude": 30.3842757,
      "longitude": -97.6925866,
      "active_school": "True",
      "city": "Austin",
      "state": "TX",
      "website": "https://austinmedicalassistantschool.com",
      "curriculum_id": "MAS"
    },
    {
      "id": 2914355151,
      "name": "College Station Dental Assistant School",
      "latitude": 30.5733907,
      "longitude": -96.3085813,
      "active_school": "True",
      "city": "College Station",
      "state": "TX",
      "website": "https://collegestationdentalassistant.com",
      "curriculum_id": "DAS"
    },
    {
      "id": 2914366805,
      "name": "Denver Dental Assistant School - Downtown",
      "latitude": 39.6883056,
      "longitude": -105.0818174,
      "active_school": "True",
      "city": "Denver",
      "state": "CO",
      "website": "https://denverdentalassistant.com",
      "curriculum_id": "DAS"
    },
    {
      "id": 2914355159,
      "name": "Temple Dental Assistant School",
      "latitude": 31.1060671,
      "longitude": -97.3924751,
      "active_school": "True",
      "city": "Temple",
      "state": "TX",
      "website": "https://templedentalassistantschool.com",
      "curriculum_id": "DAS"
    },
    {
      "id": 2912872377,
      "name": "Savannah Dental Assistant School",
      "latitude": 32.030973,
      "longitude": -81.0939635,
      "active_school": "True",
      "city": "Savannah",
      "state": "GA",
      "website": "https://savannahdentalassistant.com",
      "curriculum_id": "DAS"
    },
    {
      "id": 3053773411,
      "name": "Indianapolis Dental Assistant School - Avon",
      "latitude": 39.904342,
      "longitude": -86.0631561,
      "active_school": "True",
      "city": "Indianapolis",
      "state": "IN",
      "website": "https://indydentalassistantschool.com",
      "curriculum_id": "DAS"
    },
    {
      "id": 2914359491,
      "name": "Bellingham Dental Assistant School",
      "latitude": 48.755821,
      "longitude": -122.481637,
      "active_school": "True",
      "city": "Bellingham",
      "state": "WA",
      "website": "https://bellinghamdentalassistant.com",
      "curriculum_id": "DAS"
    },
    {
      "id": 3052750461,
      "name": "St. John Dental Assistant School - Wicker Ave",
      "latitude": 41.4514631,
      "longitude": -87.4709994,
      "active_school": "True",
      "city": "St. John",
      "state": "IN",
      "website": "https://stjohndentalassistant.com",
      "curriculum_id": "DAS"
    },
    {
      "id": 2913491426,
      "name": "Birmingham Dental Assistant School",
      "latitude": 33.4158214,
      "longitude": -86.6620395,
      "active_school": "True",
      "city": "Birmingham",
      "state": "AL",
      "website": "https://birminghamdentalassistant.com",
      "curriculum_id": "DAS"
    },
    {
      "id": 2914092255,
      "name": "Dalton Dental Assistant School",
      "latitude": 34.8010771,
      "longitude": -84.9422049,
      "active_school": "True",
      "city": "Dalton",
      "state": "GA",
      "website": "https://daltondentalassistant.com",
      "curriculum_id": "DAS"
    },
    {
      "id": 2914359487,
      "name": "Tacoma Dental Assistant School",
      "latitude": 47.2452403,
      "longitude": -122.4837639,
      "active_school": "True",
      "city": "Tacoma",
      "state": "WA",
      "website": "https://tacomadentalassistant.com",
      "curriculum_id": "DAS"
    },
    {
      "id": 7220530032,
      "name": "Phoenix Dental Assistant School",
      "latitude": 33.42258839808058, 
      "longitude": -111.64860866013568,
      "active_school": "True",
      "city": "Phoenix",
      "state": "AZ",
      "website": "https://phoenixdentalassistantschool.com/",
      "curriculum_id": "DAS"
    },
    {
      "id": 2914381774,
      "name": "Little Rock Dental Assistant School",
      "latitude": 34.744503994089385,  
      "longitude": -92.4029147968694,
      "active_school": "True",
      "city": "Little Rock",
      "state": "AR",
      "website": "https://littlerockdentalassistant.com/",
      "curriculum_id": "DAS"
    },
    {
      "id": 8933160832,
      "name": "Savannah Dental Assistant School - Richmond Hill",
      "latitude": 31.9563807,
      "longitude": -81.3078343,
      "active_school": "True",
      "city": "Richmond Hill",
      "state": "GA",
      "website": "https://www.savannahdentalassistant.com",
      "curriculum_id": "DAS"
    },
    {
      "id": 4436009843,
      "name": "Denver Dental Assistant Academy - Denver Tech Center",
      "latitude": 39.6182071,
      "longitude": -104.9033889,
      "active_school": "True",
      "city": "Greenwood Village",
      "state": "CO",
      "website": "https://denverdentalassistant.com/",
      "curriculum_id": "DAS"
    },
    {
      "id": 4436009843,
      "name": "Denver Dental Assistant Academy - Lakewood",
      "latitude": 39.6693217,
      "longitude": -105.1120026,
      "active_school": "True",
      "city": "Lakewood",
      "state": "CO",
      "website": "https://denverdentalassistant.com/",
      "curriculum_id": "DAS"
    },
    {
      "id": 2914355154,
      "name": "Bremerton Dental Assistant School",
      "latitude": 47.5913369,
      "longitude": -122.6130673,
      "active_school": "True",
      "city": "Bremerton",
      "state": "WA",
      "website": "https://bremertondentalassistant.com",
      "curriculum_id": "DAS"
    },
    {
      "id": 3052750459,
      "name": "Austin Dental Assistant School - Round Rock",
      "latitude": 30.5166082,
      "longitude": -97.6906359,
      "active_school": "True",
      "city": "Round Rock",
      "state": "TX",
      "website": "https://austindentalassistantschool.com",
      "curriculum_id": "DAS"
    },
    {
      "id": 9227410270,
      "name": "Houston Dental Assistant Academy - Clear Lake",
      "latitude": 29.555365,
      "longitude": -95.1187522,
      "active_school": "True",
      "city": "Clear Lake",
      "state": "TX",
      "website": "https://houstondentalassistant.com",
      "curriculum_id": "DAS"
    },
    {
      "id": 5294451278,
      "name": "Alvin Dental Assistant School",
      "latitude": 29.4067303,
      "longitude": -95.2313985,
      "active_school": "True",
      "city": "Alvin",
      "state": "TX",
      "website": "https://alvindentalassistant.com/",
      "curriculum_id": "DAS"
    },
    {
      "id": 2914333793,
      "name": "Waco Dental Assistant School",
      "latitude": 31.5984543,
      "longitude": -97.0913395,
      "active_school": "True",
      "city": "Waco",
      "state": "TX",
      "website": "https://dentalassistantschoolwaco.com",
      "curriculum_id": "DAS"
    },
    {
      "id": 6544293015,
      "name": "Houston Dental Assistant Academy - West Oaks",
      "latitude": 29.7359921,
      "longitude": -95.643461,
      "active_school": "True",
      "city": "West Oaks",
      "state": "TX",
      "website": "https://houstondentalassistant.com/",
      "curriculum_id": "DAS"
    },
    {
      "id": 2914846018,
      "name": "Amarillo Medical Assistant School",
      "latitude": 35.193455,
      "longitude": -101.9141723,
      "active_school": "True",
      "city": "Amarillo",
      "state": "TX",
      "website": "https://amarillomedicalassistantschool.com",
      "curriculum_id": "MAS"
    },
    {
      "id": 2914355152,
      "name": "Shreveport Dental Assistant School",
      "latitude": 32.4494352,
      "longitude": -93.7465639,
      "active_school": "True",
      "city": "Shreveport",
      "state": "LA",
      "website": "https://shreveportdentalassistant.com",
      "curriculum_id": "DAS"
    },
    {
      "id": 8732903766,
      "name": "Houston Dental Assistant Academy - Pearland",
      "latitude": 29.570773252247676, 
      "longitude": -95.26008022683844,
      "active_school": "True",
      "city": "Pearland",
      "state": "TX",
      "website": "https://houstondentalassistant.com",
      "curriculum_id": "DAS"
    },
    {
      "id": 2914359495,
      "name": "Augusta Dental Assistant School",
      "latitude": 33.4820729,
      "longitude": -82.0976045,
      "active_school": "True",
      "city": "Augusta",
      "state": "GA",
      "website": "https://augustadentalassistant.com",
      "curriculum_id": "DAS"
    },
    {
      "id": 8826078036,
      "name": "Tucson Dental Assistant School - Midtown",
      "latitude": 32.2417446288508, 
      "longitude": -110.89238862823963,
      "active_school": "True",
      "city": "Tucson",
      "state": "AZ",
      "website": "https://tucsondentalassistantschool.com",
      "curriculum_id": "DAS"
    },
    {
      "id": 5517403943,
      "name": "San Marcos Dental Assistant School",
      "latitude": 29.8577012,
      "longitude": -97.9511563,
      "active_school": "True",
      "city": "San Marcos",
      "state": "TX",
      "website": "https://sanmarcosdentalassistant.com/",
      "curriculum_id": "DAS"
    },
    {
      "id": 8167587485,
      "name": "Atlanta Dental Assistant School - Decatur",
      "latitude": 33.67909425804428, 
      "longitude": -84.22985080064606,
      "active_school": "True",
      "city": "Decatur",
      "state": "GA",
      "website": "https://atlantadentalassistantschool.com",
      "curriculum_id": "DAS"
    },
    {
      "name": "Atlanta Dental Assistant School",
      "city": "Atlanta",
      "state": "GA",
      "website": "https://atlantadentalassistantschool.com",
      "curriculum_id": "DAS"
    },
    {
      "name": "Atlanta Dental Assistant School - Buford",
      "latitude": 34.1252979, 
      "longitude": -84.006927,
      "active_school": "True",
      "city": "Buford",
      "state": "GA",
      "website": "https://atlantadentalassistantschool.com",
      "curriculum_id": "DAS"
    },
    {
      "id": 2913491423,
      "name": "Fort Worth Dental Assistant School",
      "latitude": 32.7247536,
      "longitude": -97.4626889,
      "active_school": "True",
      "city": "Fort Worth",
      "state": "TX",
      "website": "https://fortworthdentalassistant.com",
      "curriculum_id": "DAS"
    },
    {
      "id": 2914381771,
      "name": "Franklin Dental Assistant School",
      "latitude": 39.4796642,
      "longitude": -86.066119,
      "active_school": "True",
      "city": "Franklin",
      "state": "IN",
      "website": "https://franklindentalassistant.com",
      "curriculum_id": "DAS"
    },
    {
      "id": 2914808244,
      "name": "San Antonio Dental Assistant School - Northwest",
      "latitude": 29.5915628,
      "longitude": -98.614716,
      "active_school": "True",
      "city": "San Antonio",
      "state": "TX",
      "website": "https://sanantoniodentalassistantschool.com",
      "curriculum_id": "DAS"
    },
    {
      "id": 6064538764,
      "name": "Denver Dental Assistant School - Westminster",
      "latitude": 39.9225095,
      "longitude": -104.9974307,
      "active_school": "True",
      "city": "Westminster",
      "state": "CO",
      "website": "https://denverdentalassistant.com/",
      "curriculum_id": "DAS"
    },
    {
      "id": 3052750460,
      "name": "Austin Medical Assistant School - Round Rock",
      "latitude": 30.51198,
      "longitude": -97.7066437,
      "active_school": "True",
      "city": "Round Rock",
      "state": "TX",
      "website": "https://austinmedicalassistantschool.com",
      "curriculum_id": "MAS"
    },
    {
      "id": 6533269534,
      "name": "Dallas Dental Assistant School - Duncanville",
      "latitude": 32.6462473,
      "longitude": -96.9159032,
      "active_school": "True",
      "city": "Duncanville",
      "state": "TX",
      "website": "https://dallasdentalassistantschool.com",
      "curriculum_id": "DAS"
    },
    {
      "id": 5953745673,
      "name": "Tacoma Dental Assistant School - Puyallup",
      "latitude": 47.1926082,
      "longitude": -122.2566131,
      "active_school": "True",
      "city": "Puyallup",
      "state": "WA",
      "website": "https://tacomadentalassistant.com/",
      "curriculum_id": "DAS"
    },
    {
      "id": 2914381773,
      "name": "Tyler Dental Assistant School",
      "latitude": 32.2956171,
      "longitude": -95.2633484,
      "active_school": "True",
      "city": "Tyler",
      "state": "TX",
      "website": "https://tylerdentalassistant.com",
      "curriculum_id": "DAS"
    },
    {
      "id": 2914381780,
      "name": "Odessa Dental Assistant School",
      "latitude": 31.8537184,
      "longitude": -102.364935,
      "active_school": "True",
      "city": "Odessa",
      "state": "TX",
      "website": "https://odessadentalassistantschool.com",
      "curriculum_id": "DAS"
    },
    {
      "id": 2914808249,
      "name": "Granbury Medical Assistant School",
      "latitude": 32.437083,
      "longitude": -97.771452,
      "active_school": "True",
      "city": "Granbury",
      "state": "TX",
      "website": "https://granburymedicalassistant.com",
      "curriculum_id": "MAS"
    },
    {
      "id": 8930631338,
      "name": "Colorado Springs Dental Assistant School",
      "latitude": 38.8578531,
      "longitude": -104.8183873,
      "active_school": "True",
      "city": "Colorado Springs",
      "state": "CO",
      "website": "https://coloradospringsdentalassistant.com",
      "curriculum_id": "DAS"
    },
    {
      "id": 2914333796,
      "name": "Dallas Dental Assistant School - Grapevine",
      "latitude": 32.9269826,
      "longitude": -97.1045225,
      "active_school": "True",
      "city": "Grapevine",
      "state": "TX",
      "website": "https://dallasdentalassistantschool.com",
      "curriculum_id": "DAS"
    },
    {
      "id": 3053133508,
      "name": "Dallas Dental Assistant School - Plano",
      "latitude": 33.0049775,
      "longitude": -96.7629917,
      "active_school": "True",
      "city": "Plano",
      "state": "TX",
      "website": "https://dallasdentalassistantschool.com",
      "curriculum_id": "DAS"
    },
    {
      "id": 3053133509,
      "name": "San Antonio Dental Assistant School - Converse",
      "latitude": 29.4627356,
      "longitude": -98.3585261,
      "active_school": "True",
      "city": "Converse",
      "state": "TX",
      "website": "https://sanantoniodentalassistantschool.com",
      "curriculum_id": "DAS"
    },
    {
      "id": 9687720872,
      "name": "Houston Dental Assistant Academy - Kingwood",
      "latitude": 30.0498741,
      "longitude": -95.181458,
      "active_school": "True",
      "city": "Kingwood",
      "state": "TX",
      "website": "https://houstondentalassistant.com",
      "curriculum_id": "DAS"
    },
    {
      "id": 2914366798,
      "name": "Oklahoma City Dental Assistant School - Midwest City",
      "latitude": 35.4452958,
      "longitude": -97.3715559,
      "active_school": "True",
      "city": "Midwest City",
      "state": "OK",
      "website": "https://oklahomacitydentalassistant.com",
      "curriculum_id": "DAS"
    },
    {
      "id": 2914853139,
      "name": "College Station Medical Assistant School",
      "latitude": 30.6505949,
      "longitude": -96.2974845,
      "active_school": "True",
      "city": "College Station",
      "state": "TX",
      "website": "https://collegestationmedicalassistant.com",
      "curriculum_id": "MAS"
    },
    {
      "id": 2914381770,
      "name": "Olympia Dental Assistant School",
      "latitude": 46.9906696,
      "longitude": -122.9215095,
      "active_school": "True",
      "city": "Olympia",
      "state": "WA",
      "website": "https://olympiadentalassistant.com",
      "curriculum_id": "DAS"
    },
    {
      "id": 2914366800,
      "name": "South Bend Dental Assistant School",
      "latitude": 41.7068339,
      "longitude": -86.2049297,
      "active_school": "True",
      "city": "South Bend",
      "state": "IN",
      "website": "https://southbenddentalassistant.com",
      "curriculum_id": "DAS"
    },
    {
      "id": 3053154704,
      "name": "Spokane Dental Assistant School - North",
      "latitude": 47.7202116,
      "longitude": -117.4329005,
      "active_school": "True",
      "city": "Spokane",
      "state": "WA",
      "website": "https://spokanedentalassistant.com",
      "curriculum_id": "DAS"
    },
    {
      "id": 2914383633,
      "name": "Houston Dental Assistant Academy - Katy",
      "latitude": 29.7713446,
      "longitude": -95.7528736,
      "active_school": "True",
      "city": "Katy",
      "state": "TX",
      "website": "https://houstondentalassistant.com",
      "curriculum_id": "DAS"
    },
    {
      "id": 2914815028,
      "name": "Lake Jackson Medical Assistant School",
      "latitude": 29.0305764,
      "longitude": -95.4534418,
      "active_school": "True",
      "city": "Lake Jackson",
      "state": "TX",
      "website": "https://lakejacksonmedicalassistant.com",
      "curriculum_id": "MAS"
    },
    {
      "id": 2914359490,
      "name": "Lubbock Dental Assistant School",
      "latitude": 33.5219385,
      "longitude": -101.9249676,
      "active_school": "True",
      "city": "Lubbock",
      "state": "TX",
      "website": "https://lubbockdentalassistantschool.com",
      "curriculum_id": "DAS"
    },
    {
      "id": 2912872375,
      "name": "Albany Dental Assistant School",
      "latitude": 31.6142367,
      "longitude": -84.2235777,
      "active_school": "True",
      "city": "Albany",
      "state": "GA",
      "website": "https://georgiadentalassistantschool.com",
      "curriculum_id": "DAS"
    },
    {
      "id": 9226311486,
      "name": "Houston Medical Assistant School - Cypress",
      "latitude": 29.9194252,
      "longitude": -95.6855133,
      "active_school": "True",
      "city": "Cypress",
      "state": "TX",
      "website": "https://houstonmedicalassistantschool.com",
      "curriculum_id": "MAS"
    },
    {
      "id": 6044507511,
      "name": "Birmingham Dental Assistant School - Fultondale",
      "latitude": 33.6223844,
      "longitude": -86.8017708,
      "active_school": "True",
      "city": "Birmingham",
      "state": "AL",
      "website": "https://birminghamdentalassistant.com/",
      "curriculum_id": "DAS"
    },
    {
      "id": 4648076899,
      "name": "Austin Medical Assistant School - S. Lamar",
      "latitude": 30.232699,
      "longitude": -97.80335,
      "active_school": "True",
      "city": "Austin",
      "state": "TX",
      "website": "https://austinmedicalassistantschool.com",
      "curriculum_id": "MAS"
    },
    {
      "id": 2914092260,
      "name": "Chicago Dental Assistant School",
      "latitude": 41.524136,
      "longitude": -87.7021716,
      "active_school": "True",
      "city": "Chicago",
      "state": "IL",
      "website": "https://chicagodentalassistantschool.com",
      "curriculum_id": "DAS"
    },
    {
      "id": 6533260457,
      "name": "Chicago Medical Assistant School",
      "latitude": 41.933029201197826, 
      "longitude": -87.64967925806525,
      "active_school": "True",
      "city": "Chicago",
      "state": "IL",
      "website": "https://chicagomedicalassistantschool.com/",
      "curriculum_id": "MAS"
    },
    {
      "id": 2914397924,
      "name": "Dallas Dental Assistant School - Lakewood",
      "latitude": 32.8148447,
      "longitude": -96.790631,
      "active_school": "True",
      "city": "Lakewood",
      "state": "TX",
      "website": "https://dallasdentalassistantschool.com",
      "curriculum_id": "DAS"
    },
    {
      "id": 4710312778,
      "name": "Dallas Dental Assistant School - Denton",
      "latitude": 33.1943479,
      "longitude": -97.1219405,
      "active_school": "True",
      "city": "Denton",
      "state": "TX",
      "website": "https://dallasdentalassistantschool.com",
      "curriculum_id": "DAS"
    },
    {
      "id": 5517685768,
      "name": "Magnolia Dental Assistant School",
      "latitude": 30.2231224,
      "longitude": -95.5638954,
      "active_school": "True",
      "city": "Magnolia",
      "state": "TX",
      "website": "https://magnoliadentalassistant.com/",
      "curriculum_id": "DAS"
    },
    {
      "id": 2914355158,
      "name": "Las Vegas Dental Assistant School - Charleston",
      "latitude": 36.1240944,
      "longitude": -115.3414336,
      "active_school": "True",
      "city": "Las Vegas",
      "state": "NV",
      "website": "https://lasvegasdentalassistant.com",
      "curriculum_id": "DAS"
    },
    {
      "id": 4437274330,
      "name": "Houston Dental Assistant Academy - Spring",
      "latitude": 30.0679763,
      "longitude": -95.5080902,
      "active_school": "True",
      "city": "Spring",
      "state": "TX",
      "website": "https://houstondentalassistant.com",
      "curriculum_id": "DAS"
    },
    {
      "id": 2914879374,
      "name": "Wichita Falls Medical Assistant School",
      "latitude": 33.9021285,
      "longitude": -98.5076374,
      "active_school": "True",
      "city": "Wichita Falls",
      "state": "TX",
      "website": "https://wichitafallsmedicalassistant.com",
      "curriculum_id": "MAS"
    },
    {
      "id": 2914418783,
      "name": "Atlanta Dental Assistant School - Austell",
      "latitude": 33.974248,
      "longitude": -84.5543638,
      "active_school": "True",
      "city": "Austell",
      "state": "GA",
      "website": "https://atlantadentalassistantschool.com",
      "curriculum_id": "DAS"
    },
    {
      "id": 2918054557,
      "name": "Abilene Dental Assistant School",
      "latitude": 32.4620858,
      "longitude": -99.764514,
      "active_school": "True",
      "city": "Abilene",
      "state": "TX",
      "website": "https://abilenedentalassistantschool.com",
      "curriculum_id": "DAS"
    },
    {
      "id": 10038817199,
      "name": "Oklahoma City Dental Assistant School - Downtown",
      "latitude": 35.47212322600238, 
      "longitude": -97.52456497338699,
      "active_school": "True",
      "city": "Oklahoma City",
      "state": "OK",
      "website": "https://oklahomacitydentalassistant.com",
      "curriculum_id": "DAS"
    },
    {
      "id": 5852025507,
      "name": "Bloomington Dental Assistant School",
      "latitude": 39.1533227,
      "longitude": -86.4981938,
      "active_school": "True",
      "city": "Bloomington",
      "state": "IN",
      "website": "https://bloomingtondentalassistant.com",
      "curriculum_id": "DAS"
    },
    {
      "id": 4436420633,
      "name": "Austin Medical Assistant School - Cedar Park",
      "latitude": 30.5241907,
      "longitude": -97.8229171,
      "active_school": "True",
      "city": "Cedar Park",
      "state": "TX",
      "website": "https://austinmedicalassistantschool.com",
      "curriculum_id": "MAS"
    },
    {
      "id": 4403675136,
      "name": "Atlanta Medical Assistant School - Buckhead",
      "latitude": 33.8041619,
      "longitude": -84.3926136,
      "active_school": "True",
      "city": "Atlanta",
      "state": "GA",
      "website": "https://atlantamedicalassistant.com",
      "curriculum_id": "MAS"
    },
    {
      "id": 2914808246,
      "name": "Indianapolis Dental Assistant School - NE",
      "latitude": 39.8868425,
      "longitude": -86.0449537,
      "active_school": "True",
      "city": "Indianapolis",
      "state": "IN",
      "website": "https://indydentalassistantschool.com",
      "curriculum_id": "DAS"
    },
    {
      "id": 2914808246,
      "name": "Indianapolis Dental Assistant School - Avon",
      "latitude": 39.761691,
      "longitude": -86.3945262,
      "active_school": "True",
      "city": "Avon",
      "state": "IN",
      "website": "https://indydentalassistantschool.com",
      "curriculum_id": "DAS"
    },
    {
      "id": 2914808246,
      "name": "Indianapolis Dental Assistant School - Edgewood",
      "latitude": 39.6813816,
      "longitude": -86.0859597,
      "active_school": "True",
      "city": "Indianapolis",
      "state": "IN",
      "website": "https://indydentalassistantschool.com",
      "curriculum_id": "DAS"
    },
    {
      "id": 2375674833,
      "name": "Amarillo Dental Assistant School",
      "latitude": 35.1642133,
      "longitude": -101.8755835,
      "active_school": "True",
      "city": "Amarillo",
      "state": "TX",
      "website": "https://amarillodentalassistantschool.com",
      "curriculum_id": "DAS"
    },
    {
      "id": 9912619425,
      "name": "San Antonio Medical Assistant School - South",
      "latitude": -98.5167084,
      "longitude": 29.3625588,
      "active_school": "True",
      "city": "San Antonio",
      "state": "TX",
      "website": "https://sanantoniomedicalassistant.com",
      "curriculum_id": "MAS"
    },
    {
      "id": 8730816841,
      "name": "Houston Dental Assistant Academy - Sugar Land",
      "latitude": 29.597225674355588, 
      "longitude": -95.62002611703616,
      "active_school": "True",
      "city": "Sugar Land",
      "state": "TX",
      "website": "https://houstondentalassistant.com",
      "curriculum_id": "DAS"
    },
    {
      "id": 2913491424,
      "name": "Lake Stevens Dental Assistant School",
      "latitude": 47.9991401,
      "longitude": -122.1091831,
      "active_school": "True",
      "city": "Lake Stevens",
      "state": "WA",
      "website": "https://lakestevensdentalassistant.com",
      "curriculum_id": "DAS"
    },
    {
      "id": 8871738118,
      "name": "Baton Rouge Dental Assistant Academy - South",
      "latitude": 30.3723932,
      "longitude": -91.1014712,
      "active_school": "True",
      "city": "Baton Rouge",
      "state": "LA",
      "website": "https://batonrougedentalassistant.com",
      "curriculum_id": "DAS"
    },
    {
      "id": 3053773412,
      "name": "Dallas Dental Assistant School - Mesquite",
      "latitude": 32.7814183,
      "longitude": -96.5633609,
      "active_school": "True",
      "city": "Mesquite",
      "state": "TX",
      "website": "https://dallasdentalassistantschool.com",
      "curriculum_id": "DAS"
    },
    {
      "name": "Dallas Dental Assistant School",
      "city": "Dallas",
      "state": "TX",
      "website": "https://dallasdentalassistantschool.com",
      "curriculum_id": "DAS"
    },
    {
      "id": 2914092264,
      "name": "New Braunfels Dental Assistant School",
      "latitude": 29.7188255,
      "longitude": -98.1645639,
      "active_school": "True",
      "city": "New Braunfels",
      "state": "TX",
      "website": "https://newbraunfelsdentalassistant.com",
      "curriculum_id": "DAS"
    },
    {
      "id": 3053133510,
      "name": "Atlanta Dental Assistant School - Buckhead",
      "latitude": 33.8401595,
      "longitude": -84.3701769,
      "active_school": "True",
      "city": "Buckhead",
      "state": "GA",
      "website": "https://atlantadentalassistantschool.com",
      "curriculum_id": "DAS"
    },
    {
      "id": 9912608426,
      "name": "San Antonio Dental Assistant School - Southeast",
      "latitude": 29.3862113,
      "longitude": -98.4564271,
      "active_school": "True",
      "city": "San Antonio",
      "state": "TX",
      "website": "https://sanantoniodentalassistantschool.com",
      "curriculum_id": "DAS"
    },
    {
      "id": 2914865683,
      "name": "Lubbock Medical Assistant School",
      "latitude": 33.4828987,
      "longitude": -101.9054183,
      "active_school": "True",
      "city": "Lubbock",
      "state": "TX",
      "website": "https://lubbockmedicalassistant.com",
      "curriculum_id": "MAS"
    },
    {
      "id": 2914381775,
      "name": "Dallas Dental Assistant School - McKinney",
      "latitude": 33.1740765,
      "longitude": -96.6813556,
      "active_school": "True",
      "city": "McKinney",
      "state": "TX",
      "website": "https://dallasdentalassistantschool.com",
      "curriculum_id": "DAS"
    },
    {
      "id": 3053164095,
      "name": "Dallas Dental Assistant School - Carrollton",
      "latitude": 33.025485,
      "longitude": -96.8537984,
      "active_school": "True",
      "city": "Carrollton",
      "state": "TX",
      "website": "https://dallasdentalassistantschool.com",
      "curriculum_id": "DAS"
    },
    {
      "id": 6533269535,
      "name": "Dallas Medical Assistant School - Addison",
      "latitude": 32.980861,
      "longitude": -96.8290825,
      "active_school": "True",
      "city": "Dallas",
      "state": "TX",
      "website": "https://dallasmedicalassistant.com",
      "curriculum_id": "MAS"
    },
    {
      "id": 2914355161,
      "name": "Nacogdoches Dental Assistant School",
      "latitude": 31.6513266,
      "longitude": -94.650181,
      "active_school": "True",
      "city": "Nacogdoches",
      "state": "TX",
      "website": "https://nacogdochesdentalassistant.com",
      "curriculum_id": "DAS"
    },
    {
      "id": 9223048619,
      "name": "Houston Medical Assistant School - Katy",
      "latitude": 29.7745687,
      "longitude": -95.7764264,
      "active_school": "True",
      "city": "Katy",
      "state": "TX",
      "website": "https://houstonmedicalassistantschool.com",
      "curriculum_id": "MAS"
    },
    {
      "name": "Houston Medical Assistant School",
      "city": "Houston",
      "state": "TX",
      "website": "https://houstonmedicalassistantschool.com",
      "curriculum_id": "MAS"
    },
    {
      "id": 2912872380,
      "name": "Huntsville Dental Assistant School - Alabama",
      "latitude": 34.6959432,
      "longitude": -86.5796101,
      "active_school": "True",
      "city": "Huntsville",
      "state": "AL",
      "website": "https://huntsvilledentalassistant.com",
      "curriculum_id": "DAS"
    },
    {
      "id": 4888728833,
      "name": "Huntsville Dental Assistant School - Texas",
      "latitude": 30.694271077443187,
      "longitude": -95.55813661786257,
      "active_school": "True",
      "city": "Huntsville",
      "state": "TX",
      "website": "https://huntsvilledentalassistantschool.com/",
      "curriculum_id": "DAS"
    },
    {
      "id": 2914092268,
      "name": "Seattle Dental Assistant School - Ballard",
      "latitude": 47.6712064,
      "longitude": -122.3765017,
      "active_school": "True",
      "city": "Seattle",
      "state": "WA",
      "website": "https://seattledentalassistant.com",
      "curriculum_id": "DAS"
    },
    {
      "id": 4564346055,
      "name": "San Antonio Medical Assistant School - Live Oak",
      "latitude": 29.5491499,
      "longitude": -98.3647932,
      "active_school": "True",
      "city": "San Antonio",
      "state": "TX",
      "website": "https://www.sanantoniomedicalassistant.com",
      "curriculum_id": "MAS"
    }
  ]