[
  {
    "name": "Abilene Medical Assistant School",
    "address": "4351 Ridgemont Drive",
    "city": "Abilene",
    "state": "TX",
    "zip": "79606",
    "company_id": "2913693670",
    "school_key": "abilenemedicalassistant",
    "lat": 32.362767,
    "lng": -99.817334,
    "area_hub_lat": 32.362767,
    "area_hub_lng": -99.817334,
    "area_hub_city": "abilene",
    "type": "Medical"
  },
  {
    "name": "Albany Dental Assistant School",
    "address": "705 North Westover Blvd.",
    "city": "Albany",
    "state": "GA",
    "zip": "31707",
    "company_id": "2912872375",
    "school_key": "albanydentalassistantschool",
    "lat": 31.586919,
    "lng": -84.206431,
    "area_hub_lat": 31.586919,
    "area_hub_lng": -84.206431,
    "area_hub_city": "albany",
    "type": "Dental"
  },
  {
    "name": "Alvin Dental Assistant School",
    "address": "1701 Fairway Drive, Suite #20",
    "city": "Alvin",
    "state": "TX",
    "zip": "77511",
    "company_id": "5294451278",
    "school_key": "alvindentalassistant",
    "lat": 29.380858,
    "lng": -95.241857,
    "area_hub_lat": 29.380858,
    "area_hub_lng": -95.241857,
    "area_hub_city": "alvin",
    "type": "Dental"
  },
  {
    "name": "Amarillo Dental Assistant School",
    "address": "7200 SW 45th Ave, Unit 5",
    "city": "Amarillo",
    "state": "TX",
    "zip": "79109",
    "company_id": "2375674833",
    "school_key": "amarillodentalassistantschool",
    "lat": 35.166416,
    "lng": -101.886423,
    "area_hub_lat": 35.166416,
    "area_hub_lng": -101.886423,
    "area_hub_city": "amarillo",
    "type": "Dental"
  },
  {
    "name": "Amarillo Medical Assistant School",
    "address": "1901 Medi Park Dr., Suite 1048",
    "city": "Amarillo",
    "state": "TX",
    "zip": "79106",
    "company_id": "2914846018",
    "school_key": "amarillomedicalassistantschool",
    "lat": 35.203066,
    "lng": -101.895003,
    "area_hub_lat": 35.203066,
    "area_hub_lng": -101.895003,
    "area_hub_city": "amarillo",
    "type": "Medical"
  },
  {
    "name": "Atlanta Dental Assistant School - Buckhead",
    "address": "3098 Piedmont Road, Suite 100",
    "city": "Buckhead",
    "state": "GA",
    "zip": "30305",
    "company_id": "3053133510",
    "school_key": "atlantadentalassistantschool",
    "lat": 33.835696,
    "lng": -84.389116,
    "area_hub_lat": 33.84032741473319,
    "area_hub_lng": -84.36961577172323,
    "area_hub_city": "atlanta",
    "type": "Dental"
  },
  {
    "name": "Atlanta Dental Assistant School - Buford",
    "address": "5348 Lanier Islands Parkway",
    "city": "Buford",
    "state": "GA",
    "zip": "30518",
    "company_id": "9631926964",
    "school_key": "atlantadentalassistantschool",
    "lat": 34.130846,
    "lng": -84.027398,
    "area_hub_lat": 33.84032741473319,
    "area_hub_lng": -84.36961577172323,
    "area_hub_city": "atlanta",
    "type": "Dental"
  },
  {
    "name": "Atlanta Dental Assistant School - Buford",
    "address": "5348 Lanier Islands Parkway",
    "city": "Buford",
    "state": "GA",
    "zip": "30518",
    "company_id": "9631926964",
    "school_key": "buforddentalassistant",
    "lat": 34.130846,
    "lng": -84.027398,
    "area_hub_lat": 34.130846,
    "area_hub_lng": -84.027398,
    "area_hub_city": "atlanta",
    "type": "Dental"
  },
  {
    "name": "Atlanta Dental Assistant School - Decatur",
    "address": "3662 Flakes Mill Rd A",
    "city": "Decatur",
    "state": "GA",
    "zip": "30034",
    "company_id": "8167587485",
    "school_key": "atlantadentalassistantschool",
    "lat": 33.690867,
    "lng": -84.248622,
    "area_hub_lat": 33.84032741473319,
    "area_hub_lng": -84.36961577172323,
    "area_hub_city": "atlanta",
    "type": "Dental"
  },
  {
    "name": "Atlanta Dental Assistant School - Decatur",
    "address": "3662 Flakes Mill Rd A",
    "city": "Decatur",
    "state": "GA",
    "zip": "30034",
    "company_id": "8167587485",
    "school_key": "decaturdentalassistant",
    "lat": 33.690867,
    "lng": -84.248622,
    "area_hub_lat": 33.690867,
    "area_hub_lng": -84.248622,
    "area_hub_city": "atlanta",
    "type": "Dental"
  },
  {
    "name": "Atlanta Medical Assistant School - Atlantic Station",
    "address": "197 14th St. Suite 300",
    "city": "Atlanta",
    "state": "GA",
    "zip": "30309",
    "company_id": "4403675136",
    "school_key": "atlantamedicalassistant",
    "lat": 33.792334,
    "lng": -84.447713,
    "area_hub_lat": 33.792334,
    "area_hub_lng": -84.447713,
    "area_hub_city": "atlanta",
    "type": "Medical"
  },
  {
    "name": "Augusta Dental Assistant School",
    "address": "1211 West Wheeler Parkway",
    "city": "Augusta",
    "state": "GA",
    "zip": "30909",
    "company_id": "2914359495",
    "school_key": "augustadentalassistant",
    "lat": 33.470481,
    "lng": -82.083045,
    "area_hub_lat": 33.470481,
    "area_hub_lng": -82.083045,
    "area_hub_city": "augusta",
    "type": "Dental"
  },
  {
    "name": "Austin Dental Assistant School",
    "address": "1211 West Wheeler Parkway",
    "city": "Augusta",
    "state": "GA",
    "zip": "30909",
    "company_id": "2914359495",
    "school_key": "augustadentalassistant",
    "lat": 33.470481,
    "lng": -82.083045,
    "area_hub_lat": 33.470481,
    "area_hub_lng": -82.083045,
    "type": "Dental"
  },
  {
    "name": "Austin Medical Assistant School - Central",
    "address": "631 W. 38th St.",
    "city": "Austin",
    "state": "TX",
    "zip": "78705",
    "company_id": "9768365940",
    "school_key": "austinmedicalassistantschool",
    "lat": 30.294331,
    "lng": -97.738516,
    "area_hub_lat": 30.47919,
    "area_hub_lng": -97.705425,
    "type": "Medical",
    "zoom": "10"
  },
  {
    "name": "Austin Medical Assistant School - Georgetown",
    "address": "3610 Williams Drive",
    "city": "Georgetown",
    "state": "TX",
    "zip": "78628",
    "company_id": "16999162881",
    "school_key": "austinmedicalassistantschool",
    "lat": 30.664543,
    "lng": -97.778616,
    "area_hub_lat": 30.47919,
    "area_hub_lng": -97.705425,
    "area_hub_city": "austin",
    "type": "Medical",
    "zoom": "10"
  },
  {
    "name": "Georgetown Medical Assistant School",
    "address": "3610 Williams Drive",
    "city": "Georgetown",
    "state": "TX",
    "zip": "78628",
    "company_id": "16999162881",
    "school_key": "georgetownmedicalassistant",
    "lat": 30.664543,
    "lng": -97.778616,
    "area_hub_lat": 30.664543,
    "area_hub_lng": -97.778616,
    "area_hub_city": "austin",
    "type": "Medical",
    "zoom": "10"
  },
  {
    "name": "Austin Medical Assistant School - Manor",
    "address": "14008 Shadowglen Blvd., Suite 201",
    "city": "Manor",
    "state": "TX",
    "zip": "78653",
    "company_id": "3053133507",
    "school_key": "austinmedicalassistantschool",
    "lat": 30.339717,
    "lng": -97.523482,
    "area_hub_lat": 30.47919,
    "area_hub_lng": -97.705425,
    "area_hub_city": "austin",
    "type": "Medical",
    "zoom": "10"
  },
  {
    "name": "Austin Medical Assistant School - Round Rock",
    "address": "894 Summit Street, Suite 108",
    "city": "Round Rock",
    "state": "TX",
    "zip": "78664",
    "company_id": "3052750460",
    "school_key": "austinmedicalassistantschool",
    "lat": 30.505414,
    "lng": -97.647284,
    "area_hub_lat": 30.47919,
    "area_hub_lng": -97.705425,
    "area_hub_city": "austin",
    "type": "Medical",
    "zoom": "10"
  },
  {
    "name": "Austin Medical Assistant School - Round Rock",
    "address": "894 Summit Street, Suite 108",
    "city": "Round Rock",
    "state": "TX",
    "zip": "78664",
    "company_id": "3052750460",
    "school_key": "roundrockmedicalassistant",
    "lat": 30.505414,
    "lng": -97.647284,
    "area_hub_lat": 30.505414,
    "area_hub_lng": -97.647284,
    "area_hub_city": "austin",
    "type": "Medical",
    "zoom": "10"
  },
  {
    "name": "Austin Medical Assistant School - S. Lamar",
    "address": "4544 S Lamar Blvd Suite 700",
    "city": "Austin",
    "state": "TX",
    "zip": "78745",
    "company_id": "4648076899",
    "school_key": "austinmedicalassistantschool",
    "lat": 30.206851,
    "lng": -97.797381,
    "area_hub_lat": 30.47919,
    "area_hub_lng": -97.705425,
    "area_hub_city": "austin",
    "type": "Medical",
    "zoom": "10"
  },
  {
    "name": "Austin Medical Assistant School - W Braker",
    "address": "1139 W. Braker Ln #103",
    "city": "Austin",
    "state": "TX",
    "zip": "78758",
    "company_id": "2914831748",
    "school_key": "austinmedicalassistantschool",
    "lat": 30.387987,
    "lng": -97.706848,
    "area_hub_lat": 30.47919,
    "area_hub_lng": -97.705425,
    "area_hub_city": "austin",
    "type": "Medical",
    "zoom": "10"
  },
  {
    "name": "Baton Rouge Dental Assistant Academy",
    "address": "8894 Airline Highway, Suite M",
    "city": "Baton Rouge",
    "state": "LA",
    "zip": "70815",
    "company_id": "2917600636",
    "school_key": "batonrougedentalassistant",
    "lat": 30.455463,
    "lng": -91.066262,
    "area_hub_lat": 30.455463,
    "area_hub_lng": -91.066262,
    "area_hub_city": "baton-rouge",
    "type": "Dental"
  },
  {
    "name": "Baton Rouge Dental Assistant Academy - South",
    "address": "8480 Bluebonnet Blvd, Suite E",
    "city": "Baton Rouge",
    "state": "LA",
    "zip": "70810",
    "company_id": "8871738118",
    "school_key": "batonrougedentalassistant",
    "lat": 30.345423,
    "lng": -91.094293,
    "area_hub_lat": 30.455463,
    "area_hub_lng": -91.066262,
    "area_hub_city": "baton-rouge",
    "type": "Dental"
  },
  {
    "name": "Beaumont Dental Assistant School",
    "address": "2627 Calder Ave",
    "city": "Beaumont",
    "state": "TX",
    "zip": "77702",
    "company_id": "2912872378",
    "school_key": "beaumontdentalassistant",
    "lat": 30.086269,
    "lng": -94.128303,
    "area_hub_lat": 30.086269,
    "area_hub_lng": -94.128303,
    "area_hub_city": "beaumont",
    "type": "Dental"
  },
  {
    "name": "Bellingham Dental Assistant School",
    "address": "1800 C Street, Suite 225",
    "city": "Bellingham",
    "state": "WA",
    "zip": "98225",
    "company_id": "2914359491",
    "school_key": "bellinghamdentalassistant",
    "lat": 48.754119,
    "lng": -122.508135,
    "area_hub_lat": 48.754119,
    "area_hub_lng": -122.508135,
    "area_hub_city": "bellingham",
    "type": "Dental"
  },
  {
    "name": "Birmingham Dental Assistant School",
    "address": "140 Village Street, Suite 203",
    "city": "Birmingham",
    "state": "AL",
    "zip": "35242",
    "company_id": "2913491426",
    "school_key": "birminghamdentalassistant",
    "lat": 33.425247,
    "lng": -86.672084,
    "area_hub_lat": 33.425247,
    "area_hub_lng": -86.672084,
    "area_hub_city": "birmingham",
    "type": "Dental"
  },
  {
    "name": "Bloomington Dental Assistant School",
    "address": "1124 South College Mall Road",
    "city": "Bloomington",
    "state": "IN",
    "zip": "47401",
    "company_id": "5852025507",
    "school_key": "bloomingtondentalassistant",
    "lat": 39.102302,
    "lng": -86.442812,
    "area_hub_lat": 39.102302,
    "area_hub_lng": -86.442812,
    "area_hub_city": "bloomington",
    "type": "Dental"
  },
  {
    "name": "Bremerton Dental Assistant School",
    "address": "2554 Perry Ave., Suite C",
    "city": "Bremerton",
    "state": "WA",
    "zip": "98310",
    "company_id": "2914355154",
    "school_key": "bremertondentalassistant",
    "lat": 47.591852,
    "lng": -122.626259,
    "area_hub_lat": 47.591852,
    "area_hub_lng": -122.626259,
    "area_hub_city": "bremerton",
    "type": "Dental"
  },
  {
    "name": "Centralia Dental Assistant School",
    "address": "1407 Kresky Avenue",
    "city": "Centralia",
    "state": "WA",
    "zip": "98531",
    "company_id": "2914366806",
    "school_key": "centraliadentalassistant",
    "lat": 46.730437,
    "lng": -122.902774,
    "area_hub_lat": 46.730437,
    "area_hub_lng": -122.902774,
    "area_hub_city": "centralia",
    "type": "Dental"
  },
  {
    "name": "Charlotte Dental Assistant School - Central",
    "address": "2400 South Blvd. Suite 201",
    "city": "Charlotte",
    "state": "NC",
    "zip": "28203",
    "company_id": "8559726855",
    "school_key": "charlottedentalassistantschool",
    "lat": 35.208185,
    "lng": -80.859107,
    "area_hub_lat": 35.273171,
    "area_hub_lng": -80.829178,
    "area_hub_city": "charlotte",
    "type": "Dental"
  },
  {
    "name": "Charlotte Dental Assistant School - North",
    "address": "10220 Prosperity Park Dr., Suite 100",
    "city": "Charlotte",
    "state": "NC",
    "zip": "28269",
    "company_id": "2914865682",
    "school_key": "charlottedentalassistantschool",
    "lat": 35.337313,
    "lng": -80.803472,
    "area_hub_lat": 35.273171,
    "area_hub_lng": -80.829178,
    "area_hub_city": "charlotte",
    "type": "Dental"
  },
  {
    "name": "Charlotte Dental Assistant School - South",
    "address": "10844 Providence Rd",
    "city": "Charlotte",
    "state": "NC",
    "zip": "28277",
    "company_id": "10556529685",
    "school_key": "charlottedentalassistantschool",
    "lat": 35.052875,
    "lng": -80.817552,
    "area_hub_lat": 35.273171,
    "area_hub_lng": -80.829178,
    "area_hub_city": "charlotte",
    "type": "Dental"
  },
  {
    "name": "Chicago Dental Assistant School - Olympia Fields",
    "address": "20180 Governors Dr. #104",
    "city": "Olympia Fields",
    "state": "IL",
    "zip": "60461",
    "company_id": "2914092260",
    "school_key": "chicagodentalassistantschool",
    "lat": 41.522116,
    "lng": -87.700733,
    "area_hub_lat": 41.522116,
    "area_hub_lng": -87.700733,
    "area_hub_city": "chicago",
    "type": "Dental"
  },
  {
    "name": "Chicago Medical Assistant School",
    "address": "830 W Diversey Pkwy Suite 300",
    "city": "Chicago",
    "state": "IL",
    "zip": "60614",
    "company_id": "6533260457",
    "school_key": "chicagomedicalassistantschool",
    "lat": 41.922714,
    "lng": -87.649577,
    "area_hub_lat": 41.922714,
    "area_hub_lng": -87.649577,
    "area_hub_city": "chicago",
    "type": "Medical"
  },
  {
    "name": "College Station Medical Assistant School",
    "address": "3201 University Dr. E. Ste. 205",
    "city": "Bryan",
    "state": "TX",
    "zip": "77802",
    "company_id": "2914853139",
    "school_key": "collegestationmedicalassistant",
    "lat": 30.661249,
    "lng": -96.322614,
    "area_hub_lat": 30.661249,
    "area_hub_lng": -96.322614,
    "area_hub_city": "college-station",
    "type": "Medical"
  },
  {
    "name": "College Station Medical Assistant School - E. Villa Maria",
    "address": "2011 E. Villa Maria Rd.",
    "city": "Bryan",
    "state": "TX",
    "zip": "77802",
    "company_id": "15459501875",
    "school_key": "collegestationmedicalassistant",
    "lat": 30.661249,
    "lng": -96.322614,
    "area_hub_lat": 30.661249,
    "area_hub_lng": -96.322614,
    "area_hub_city": "college-station",
    "type": "Medical"
  },
  {
    "name": "Colorado Dental Assistant Academy - Greeley",
    "address": "7251 W. 20th St., Bldg. H, Ste. 1",
    "city": "Greeley",
    "state": "CO",
    "zip": "80634",
    "company_id": "4648022744",
    "school_key": "coloradodentalassistant",
    "lat": 40.40468,
    "lng": -104.792718,
    "area_hub_lat": 40.40468,
    "area_hub_lng": -104.792718,
    "area_hub_city": "colorado",
    "type": "Dental"
  },
  {
    "name": "Colorado Springs Dental Assistant School",
    "address": "1705 N. Weber St.",
    "city": "Colorado Springs",
    "state": "CO",
    "zip": "80907",
    "company_id": "8930631338",
    "school_key": "coloradospringsdentalassistant",
    "lat": 38.878231,
    "lng": -104.827015,
    "area_hub_lat": 38.878231,
    "area_hub_lng": -104.827015,
    "area_hub_city": "colorado-springs",
    "type": "Dental"
  },
  {
    "name": "Corpus Christi Dental Assistant School",
    "address": "729 Everhart Rd.",
    "city": "Corpus Christi",
    "state": "TX",
    "zip": "78411",
    "company_id": "2914333791",
    "school_key": "corpuschristidentalassistant",
    "lat": 27.729894,
    "lng": -97.385247,
    "area_hub_lat": 27.729894,
    "area_hub_lng": -97.385247,
    "area_hub_city": "corpus-christi",
    "type": "Dental"
  },
  {
    "name": "Corpus Christi Medical Assistant School",
    "address": "1315 Santa Fe St., Ste 102",
    "city": "Corpus Christi",
    "state": "TX",
    "zip": "78404",
    "company_id": "2914092258",
    "school_key": "corpuschristimedicalassistant",
    "lat": 27.768022,
    "lng": -97.399136,
    "area_hub_lat": 27.768022,
    "area_hub_lng": -97.399136,
    "area_hub_city": "corpus-christi",
    "type": "Medical"
  },
  {
    "name": "Dallas Medical Assistant School - Addison",
    "address": "16901 Dallas Parkway",
    "city": "Addison",
    "state": "TX",
    "zip": "75001",
    "company_id": "6533269535",
    "school_key": "dallasmedicalassistant",
    "lat": 32.960047,
    "lng": -96.838522,
    "area_hub_lat": 32.982198,
    "area_hub_lng": -96.830319,
    "area_hub_city": "dallas",
    "type": "Medical"
  },
  {
    "name": "Dallas Medical Assistant School - Denton",
    "address": "3200 Colorado Blvd., Ste. 202",
    "city": "Denton",
    "state": "TX",
    "zip": "76210",
    "company_id": "10113609991",
    "school_key": "dallasmedicalassistant",
    "lat": 33.149467,
    "lng": -97.096016,
    "area_hub_lat": 32.982198,
    "area_hub_lng": -96.830319,
    "area_hub_city": "dallas",
    "type": "Medical"
  },
  {
    "name": "Dallas Medical Assistant School - Irving",
    "address": "861 W. John Carpenter Fwy., Suite B",
    "city": "Irving",
    "state": "TX",
    "zip": "75039",
    "company_id": "15424495674",
    "school_key": "dallasmedicalassistant",
    "lat": 32.885608,
    "lng": -96.942654,
    "area_hub_lat": 32.982198,
    "area_hub_lng": -96.830319,
    "area_hub_city": "dallas",
    "type": "Medical"
  },
  {
    "name": "Dalton Dental Assistant School",
    "address": "1017 Riverburch Parkway",
    "city": "Dalton",
    "state": "GA",
    "zip": "30721",
    "company_id": "2914092255",
    "school_key": "daltondentalassistant",
    "lat": 34.788636,
    "lng": -84.916082,
    "area_hub_lat": 34.788636,
    "area_hub_lng": -84.916082,
    "area_hub_city": "dalton",
    "type": "Dental"
  },
  {
    "name": "Denver Dental Assistant School - Greenwood Village",
    "address": "5420 S. Quebec Street, Ste 203",
    "city": "Greenwood Village",
    "state": "CO",
    "zip": "80111",
    "company_id": "17049560448",
    "school_key": "denverdentalassistant",
    "lat": 39.612272,
    "lng": -104.877828,
    "area_hub_lat": 39.706005,
    "area_hub_lng": -104.993732,
    "area_hub_city": "denver",
    "type": "Dental"
  },
  {
    "name": "Greenwood Village Dental Assistant School",
    "address": "5420 S. Quebec Street, Ste 203",
    "city": "Greenwood Village",
    "state": "CO",
    "zip": "80111",
    "company_id": "17049560448",
    "school_key": "greenwoodvillagedentalassistant",
    "lat": 39.612272,
    "lng": -104.877828,
    "area_hub_lat": 39.612272,
    "area_hub_lng": -104.877828,
    "area_hub_city": "denver",
    "type": "Dental"
  },
  {
    "name": "Denver Dental Assistant School - Lakewood",
    "address": "2598 S Lewis Way Suite 3C2598 S Lewis Way Suite 3C",
    "city": "Lakewood",
    "state": "CO",
    "zip": "80227",
    "company_id": "17049560448",
    "school_key": "denverdentalassistant",
    "lat": 39.666287,
    "lng": -105.089746,
    "area_hub_lat": 39.706005,
    "area_hub_lng": -104.993732,
    "area_hub_city": "denver",
    "type": "Dental"
  },
  {
    "name": "Denver Dental Assistant School - Downtown",
    "address": "1501 Wazee Street Unit 1A",
    "city": "Denver",
    "state": "CO",
    "zip": "80202",
    "company_id": "2914366805",
    "school_key": "denverdentalassistant",
    "lat": 39.751908,
    "lng": -104.997633,
    "area_hub_lat": 39.706005,
    "area_hub_lng": -104.993732,
    "area_hub_city": "denver",
    "type": "Dental"
  },
  {
    "name": "Denver Dental Assistant School - Westminster",
    "address": "7970 Sheridan Blvd. Suite 300A",
    "city": "Westminster",
    "state": "CO",
    "zip": "80003",
    "company_id": "6064538764",
    "school_key": "denverdentalassistant",
    "lat": 39.825417,
    "lng": -105.063561,
    "area_hub_lat": 39.706005,
    "area_hub_lng": -104.993732,
    "area_hub_city": "denver",
    "type": "Dental"
  },
  {
    "name": "Westminster Dental Assistant School",
    "address": "7970 Sheridan Blvd. Suite 300A",
    "city": "Westminster",
    "state": "CO",
    "zip": "80003",
    "company_id": "6064538764",
    "school_key": "westminsterdentalassistant",
    "lat": 39.825417,
    "lng": -105.063561,
    "area_hub_lat": 39.825417,
    "area_hub_lng": -105.063561,
    "area_hub_city": "denver",
    "type": "Dental"
  },
  {
    "name": "Fort Worth Dental Assistant School",
    "address": "8436 Camp Bowie W Blvd",
    "city": "Fort Worth",
    "state": "TX",
    "zip": "76116",
    "company_id": "2913491423",
    "school_key": "fortworthdentalassistant",
    "lat": 32.720723,
    "lng": -97.447033,
    "area_hub_lat": 32.720723,
    "area_hub_lng": -97.447033,
    "area_hub_city": "fort-worth",
    "type": "Dental"
  },
  {
    "name": "Fort Worth Dental Assistant School - Meadowbrook",
    "address": "6426 Meadowbrook Dr.",
    "city": "Fort Worth",
    "state": "TX",
    "zip": "786112",
    "company_id": "11510424394",
    "school_key": "fortworthdentalassistant",
    "lat": 32.747426,
    "lng": -97.217658,
    "area_hub_lat": 32.720723,
    "area_hub_lng": -97.447033,
    "area_hub_city": "fort-worth",
    "type": "Dental"
  },
  {
    "name": "Fort Worth Medical Assistant School",
    "address": "3800 N. Tarrant Pkwy., Suite 210",
    "city": "Fort Worth",
    "state": "TX",
    "zip": "76244",
    "company_id": "8874765743",
    "school_key": "fortworthmedicalassistant",
    "lat": 32.927988,
    "lng": -97.283692,
    "area_hub_lat": 32.927988,
    "area_hub_lng": -97.283692,
    "area_hub_city": "fort-worth",
    "type": "Medical"
  },
  {
    "name": "Franklin Dental Assistant School",
    "address": "799 W. Jefferson Street",
    "city": "Franklin",
    "state": "IN",
    "zip": "46131",
    "company_id": "2914381771",
    "school_key": "franklindentalassistant",
    "lat": 39.473489,
    "lng": -86.043592,
    "area_hub_lat": 39.473489,
    "area_hub_lng": -86.043592,
    "area_hub_city": "franklin",
    "type": "Dental"
  },
  {
    "name": "Gonzales Medical Assistant School",
    "address": "1943 S. Burnside Ave.",
    "city": "Gonzales",
    "state": "LA",
    "zip": "70737",
    "company_id": "2914879375",
    "school_key": "gonzalesmedicalassistant",
    "lat": 30.22238,
    "lng": -90.922197,
    "area_hub_lat": 30.22238,
    "area_hub_lng": -90.922197,
    "area_hub_city": "gonzales",
    "type": "Medical"
  },
  {
    "name": "Granbury Medical Assistant School",
    "address": "1200 Crawford Ave. Ste. C",
    "city": "Granbury",
    "state": "TX",
    "zip": "76048",
    "company_id": "2914808249",
    "school_key": "granburymedicalassistant",
    "lat": 32.422347,
    "lng": -97.811542,
    "area_hub_lat": 32.422347,
    "area_hub_lng": -97.811542,
    "area_hub_city": "granbury",
    "type": "Medical"
  },
  {
    "name": "Houston Medical Assistant School - Cypress",
    "address": "9740 Barker Cypress Rd., Ste. 111",
    "city": "Cypress",
    "state": "TX",
    "zip": "77433",
    "company_id": "9226311486",
    "school_key": "houstonmedicalassistant",
    "lat": 29.940612,
    "lng": -95.737997,
    "area_hub_lat": 29.769063,
    "area_hub_lng": -95.372218,
    "area_hub_city": "houston",
    "type": "Medical"
  },
  {
    "name": "Houston Medical Assistant School - Katy",
    "address": "607 S. Mason Rd.",
    "city": "Katy",
    "state": "TX",
    "zip": "77450",
    "company_id": "9223048619",
    "school_key": "houstonmedicalassistant",
    "lat": 29.745245,
    "lng": -95.741778,
    "area_hub_lat": 29.769063,
    "area_hub_lng": -95.372218,
    "area_hub_city": "houston",
    "type": "Medical"
  },
  {
    "name": "Houston Medical Assistant School - Kingwood",
    "address": "528 Kingwood Dr",
    "city": "Kingwood",
    "state": "TX",
    "zip": "77339",
    "company_id": "17269600344",
    "school_key": "houstonmedicalassistant",
    "lat": 30.048963,
    "lng": -95.222153,
    "area_hub_lat": 29.769063,
    "area_hub_lng": -95.372218,
    "area_hub_city": "houston",
    "type": "Medical"
  },
  {
    "name": "Houston Medical Assistant School - Sugar Land",
    "address": "3533 Town Center Blvd. S., Ste. 100",
    "city": "Sugar Land",
    "state": "TX",
    "zip": "77479",
    "company_id": "16998603373",
    "school_key": "houstonmedicalassistant",
    "lat": 29.566996,
    "lng": -95.636016,
    "area_hub_lat": 29.769063,
    "area_hub_lng": -95.372218,
    "area_hub_city": "houston",
    "type": "Medical"
  },
  {
    "name": "Huntsville Dental Assistant School - Alabama",
    "address": "4000 Balmoral Dr. Ste. 102",
    "city": "Huntsville",
    "state": "AL",
    "zip": "35801",
    "company_id": "2912872380",
    "school_key": "huntsvilledentalassistant",
    "lat": 34.725269,
    "lng": -86.560866,
    "area_hub_lat": 34.725269,
    "area_hub_lng": -86.560866,
    "area_hub_city": "huntsville-AL",
    "type": "Dental"
  },
  {
    "name": "Huntsville Dental Assistant School - Texas",
    "address": "3205 Robinson Creek Pkwy",
    "city": "Huntsville",
    "state": "TX",
    "zip": "77340",
    "company_id": "4888728833",
    "school_key": "huntsvilledentalassistantschool",
    "lat": 30.640262,
    "lng": -95.538397,
    "area_hub_lat": 30.640262,
    "area_hub_lng": -95.538397,
    "type": "Dental"
  },
  {
    "name": "Indianapolis Dental Assistant School - Avon",
    "address": "7393 Business Center Dr., Ste. 400",
    "city": "Indianapolis",
    "state": "IN",
    "zip": "46250",
    "company_id": "3053773411",
    "school_key": "indydentalassistantschool",
    "lat": 39.898839,
    "lng": -86.058805,
    "area_hub_lat": 39.806624,
    "area_hub_lng": -86.214936,
    "area_hub_city": "indianapolis",
    "type": "Dental"
  },
  {
    "name": "Indianapolis Dental Assistant School - NE",
    "address": "7265 N. Shadeland Ave.",
    "city": "Indianapolis",
    "state": "IN",
    "zip": "46250",
    "company_id": "2914808246",
    "school_key": "indydentalassistantschool",
    "lat": 39.898839,
    "lng": -86.058805,
    "area_hub_lat": 39.806624,
    "area_hub_lng": -86.214936,
    "area_hub_city": "indianapolis",
    "type": "Dental"
  },
  {
    "name": "Indianapolis Medical Assistant School",
    "address": "15229 Westfield Blvd",
    "city": "Carmel",
    "state": "IN",
    "zip": "46032",
    "company_id": "8877247913",
    "school_key": "indianapolismedicalassistantschool",
    "lat": 39.963796,
    "lng": -86.174192,
    "area_hub_lat": 39.963796,
    "area_hub_lng": -86.174192,
    "area_hub_city": "indianapolis",
    "type": "Medical"
  },
  {
    "name": "Jeffersonville Dental Assistant School",
    "address": "900 Spring Street, Suite B",
    "city": "Jeffersonville",
    "state": "IN",
    "zip": "47130",
    "company_id": "4372592714",
    "school_key": "jeffersonvilledentalassistant",
    "lat": 38.332415,
    "lng": -85.696087,
    "area_hub_lat": 38.332415,
    "area_hub_lng": -85.696087,
    "area_hub_city": "jeffersonville",
    "type": "Dental"
  },
  {
    "name": "Lafayette Dental Assistant School",
    "address": "2727 Kaliste Saloom Rd. Ste 400",
    "city": "Lafayette",
    "state": "LA",
    "zip": "70508",
    "company_id": "2912872372",
    "school_key": "lafayettedentalassistant",
    "lat": 30.155238,
    "lng": -92.028225,
    "area_hub_lat": 30.155238,
    "area_hub_lng": -92.028225,
    "area_hub_city": "lafayette",
    "type": "Dental"
  },
  {
    "name": "Lake Jackson Medical Assistant School",
    "address": "115 Abner Jackson Pkwy., Ste C",
    "city": "Lake Jackson",
    "state": "TX",
    "zip": "77566",
    "company_id": "2914815028",
    "school_key": "lakejacksonmedicalassistant",
    "lat": 29.052739,
    "lng": -95.474351,
    "area_hub_lat": 29.052739,
    "area_hub_lng": -95.474351,
    "area_hub_city": "lake-jackson",
    "type": "Medical"
  },
  {
    "name": "Lake Stevens Dental Assistant School",
    "address": "8933 Market Place NE",
    "city": "Lake Stevens",
    "state": "WA",
    "zip": "98258",
    "company_id": "2913491424",
    "school_key": "lakestevensdentalassistant",
    "lat": 48.04346,
    "lng": -122.076554,
    "area_hub_lat": 48.04346,
    "area_hub_lng": -122.076554,
    "area_hub_city": "lake-stevens",
    "type": "Dental"
  },
  {
    "name": "Las Vegas Dental Assistant School - Charleston",
    "address": "2801 W. Charleston Blvd, Suite 100",
    "city": "Las Vegas",
    "state": "NV",
    "zip": "89102",
    "company_id": "2914355158",
    "school_key": "lasvegasdentalassistant",
    "lat": 36.14543,
    "lng": -115.186825,
    "area_hub_lat": 36.14543,
    "area_hub_lng": -115.186825,
    "area_hub_city": "las-vegas",
    "type": "Dental"
  },
  {
    "name": "Las Vegas Medical Assistant School",
    "address": "1701 N. Green Valley Pkwy Bldg 5, suite C",
    "city": "Henderson",
    "state": "NV",
    "zip": "89074",
    "company_id": "2914846017",
    "school_key": "lasvegasmedicalassistant",
    "lat": 36.036583,
    "lng": -115.080914,
    "area_hub_lat": 36.036583,
    "area_hub_lng": -115.080914,
    "area_hub_city": "las-vegas",
    "type": "Medical"
  },
  {
    "name": "League City Medical Assistant School - South Shore",
    "address": "3032 Marina Bay Drive, Ste. 200",
    "city": "League City",
    "state": "TX",
    "zip": "77573",
    "company_id": "2969764930",
    "school_key": "leaguecitymedicalassistant",
    "lat": 29.503785,
    "lng": -95.0873,
    "area_hub_lat": 29.529165,
    "area_hub_lng": -95.111412,
    "area_hub_city": "league-city",
    "type": "Medical"
  },
  {
    "name": "League City Medical Assistant School - Webster",
    "address": "1507 W Bay Area Blvd., Ste. D",
    "city": "Webster",
    "state": "TX",
    "zip": "77598",
    "company_id": "15459502380",
    "school_key": "leaguecitymedicalassistant",
    "lat": 29.539422,
    "lng": -95.134995,
    "area_hub_lat": 29.529165,
    "area_hub_lng": -95.111412,
    "area_hub_city": "league-city",
    "type": "Medical"
  },
  {
    "name": "Little Rock Dental Assistant Academy",
    "address": "11600 Kanis Road, Suite 800",
    "city": "Little Rock",
    "state": "AR",
    "zip": "72211",
    "company_id": "2914381774",
    "school_key": "littlerockdentalassistant",
    "lat": 34.750556,
    "lng": -92.417622,
    "area_hub_lat": 34.750556,
    "area_hub_lng": -92.417622,
    "area_hub_city": "little-rock",
    "type": "Dental"
  },
  {
    "name": "Lubbock Medical Assistant School",
    "address": "12210 Quaker Ave",
    "city": "Lubbock",
    "state": "TX",
    "zip": "79424",
    "company_id": "2914865683",
    "school_key": "lubbockmedicalassistant",
    "lat": 33.4674,
    "lng": -101.944286,
    "area_hub_lat": 33.4674,
    "area_hub_lng": -101.944286,
    "area_hub_city": "lubbock",
    "type": "Medical"
  },
  {
    "name": "Macon Dental Assistant School",
    "address": "6501 Peake Rd #600",
    "city": "Macon",
    "state": "GA",
    "zip": "31210",
    "company_id": "4999417346",
    "school_key": "macondentalassistantschool",
    "lat": 32.907633,
    "lng": -83.735052,
    "area_hub_lat": 32.907633,
    "area_hub_lng": -83.735052,
    "area_hub_city": "macon",
    "type": "Dental"
  },
  {
    "name": "Montgomery Dental Assistant School",
    "address": "7235 Eastchase Parkway Suite 101",
    "city": "Montgomery",
    "state": "AL",
    "zip": "36117",
    "company_id": "2914092256",
    "school_key": "montgomerydentalassistant",
    "lat": 32.378696,
    "lng": -86.145018,
    "area_hub_lat": 32.378696,
    "area_hub_lng": -86.145018,
    "area_hub_city": "montgomery",
    "type": "Dental"
  },
  {
    "name": "Muncie Dental Assistant School",
    "address": "800 West University Avenue",
    "city": "Muncie",
    "state": "IN",
    "zip": "47303",
    "company_id": "2912872382",
    "school_key": "munciedentalassistant",
    "lat": 40.271643,
    "lng": -85.377772,
    "area_hub_lat": 40.271643,
    "area_hub_lng": -85.377772,
    "area_hub_city": "muncie",
    "type": "Dental"
  },
  {
    "name": "New Orleans Dental Assistant School",
    "address": "2901 Independence St., Suite 101",
    "city": "Metairie",
    "state": "LA",
    "zip": "70006",
    "company_id": "2914366802",
    "school_key": "neworleansdentalassistant",
    "lat": 30.014032,
    "lng": -90.191345,
    "area_hub_lat": 30.014032,
    "area_hub_lng": -90.191345,
    "area_hub_city": "new-orleans",
    "type": "Dental"
  },
  {
    "name": "Oklahoma City Dental Assistant School - Midwest City",
    "address": "1991 South Douglas Blvd",
    "city": "Midwest City",
    "state": "OK",
    "zip": "73130",
    "company_id": "2914366798",
    "school_key": "oklahomacitydentalassistant",
    "lat": 35.458652,
    "lng": -97.345586,
    "area_hub_lat": 35.542306,
    "area_hub_lng": -97.548483,
    "area_hub_city": "oklahoma-city",
    "type": "Dental"
  },
  {
    "name": "Oklahoma City Dental Assistant School - Uptown",
    "address": "5701 NW. 23rd St.",
    "city": "Oklahoma City",
    "state": "OK",
    "zip": "73127",
    "company_id": "10038817199",
    "school_key": "oklahomacitydentalassistant",
    "lat": 35.470749,
    "lng": -97.519001,
    "area_hub_lat": 35.542306,
    "area_hub_lng": -97.548483,
    "area_hub_city": "oklahoma-city",
    "type": "Dental"
  },
  {
    "name": "Olympia Dental Assistant School",
    "address": "1502 Bishop Rd. SW",
    "city": "Tumwater",
    "state": "WA",
    "zip": "98512",
    "company_id": "2914381770",
    "school_key": "olympiadentalassistant",
    "lat": 46.975003,
    "lng": -123.063616,
    "area_hub_lat": 46.975003,
    "area_hub_lng": -123.063616,
    "area_hub_city": "olympia",
    "type": "Dental"
  },
  {
    "name": "Phoenix Dental Assistant School - Mesa",
    "address": "31 S 63rd Street Suite 5",
    "city": "Mesa",
    "state": "AZ",
    "zip": "85206",
    "company_id": "7220530032",
    "school_key": "phoenixdentalassistantschool",
    "lat": 33.396296,
    "lng": -111.717019,
    "area_hub_lat": 33.396296,
    "area_hub_lng": -111.717019,
    "area_hub_city": "phoenix",
    "type": "Dental"
  },
  {
    "name": "Pueblo Medical Assistant School",
    "address": "44 E Spaulding Ave., Building 2 Suite 3",
    "city": "Pueblo West",
    "state": "CO",
    "zip": "81007",
    "company_id": "9912609084",
    "school_key": "pueblomedicalassistant",
    "lat": 38.360042,
    "lng": -104.773198,
    "area_hub_lat": 38.360042,
    "area_hub_lng": -104.773198,
    "area_hub_city": "pueblo",
    "type": "Medical"
  },
  {
    "name": "San Antonio Medical Assistant School - Live Oak",
    "address": "11900 Crownpoint Dr., Suite 112",
    "city": "San Antonio",
    "state": "TX",
    "zip": "78233",
    "company_id": "4564346055",
    "school_key": "sanantoniomedicalassistant",
    "lat": 29.555818,
    "lng": -98.361905,
    "area_hub_lat": 29.53976624901948,
    "area_hub_lng": -98.4761369248327,
    "area_hub_city": "san-antonio",
    "type": "Medical"
  },
  {
    "name": "San Antonio Medical Assistant School - NW",
    "address": "9502 Huebner Road, Suite 102",
    "city": "San Antonio",
    "state": "TX",
    "zip": "78240",
    "company_id": "2914366797",
    "school_key": "sanantoniomedicalassistant",
    "lat": 29.52502,
    "lng": -98.606564,
    "area_hub_lat": 29.53976624901948,
    "area_hub_lng": -98.4761369248327,
    "area_hub_city": "san-antonio",
    "type": "Medical"
  },
  {
    "name": "San Antonio Medical Assistant School - South",
    "address": "1611 Commercial Ave.",
    "city": "San Antonio",
    "state": "TX",
    "zip": "78221",
    "company_id": "9912619425",
    "school_key": "sanantoniomedicalassistant",
    "lat": 29.29864,
    "lng": -98.483115,
    "area_hub_lat": 29.53976624901948,
    "area_hub_lng": -98.4761369248327,
    "area_hub_city": "san-antonio",
    "type": "Medical"
  },
  {
    "name": "Savannah Dental Assistant School - Medical Arts Center",
    "address": "9A Medical Arts Center",
    "city": "Savannah",
    "state": "GA",
    "zip": "31405",
    "company_id": "2912872377",
    "school_key": "savannahdentalassistant",
    "lat": 32.039402,
    "lng": -81.179112,
    "area_hub_lat": 32.039402,
    "area_hub_lng": -81.179112,
    "area_hub_city": "savannah",
    "type": "Dental"
  },
  {
    "name": "Savannah Dental Assistant School - Richmond Hill",
    "address": "1962 US-17",
    "city": "Richmond Hill",
    "state": "GA",
    "zip": "31324",
    "company_id": "8933160832",
    "school_key": "savannahdentalassistant",
    "lat": 31.850203,
    "lng": -81.264824,
    "area_hub_lat": 32.039402,
    "area_hub_lng": -81.179112,
    "area_hub_city": "savannah",
    "type": "Dental"
  },
  {
    "name": "Richmond Hill Dental Assistant School",
    "address": "1962 US-17",
    "city": "Richmond Hill",
    "state": "GA",
    "zip": "31324",
    "company_id": "8933160832",
    "school_key": "richmondhilldentalassistant",
    "lat": 31.850203,
    "lng": -81.264824,
    "area_hub_lat": 31.850203,
    "area_hub_lng": -81.264824,
    "area_hub_city": "savannah",
    "type": "Dental"
  },
  {
    "name": "Seattle Dental Assistant School - Ballard",
    "address": "5803 15th Ave. NW",
    "city": "Seattle",
    "state": "WA",
    "zip": "98107",
    "company_id": "2914092268",
    "school_key": "seattledentalassistant",
    "lat": 47.667527,
    "lng": -122.377551,
    "area_hub_lat": 47.8600795,
    "area_hub_lng": -122.2206505,
    "area_hub_city": "seattle",
    "type": "Dental"
  },
  {
    "name": "Seattle Dental Assistant School - Mill Creek",
    "address": "15130 Main St., STE 210",
    "city": "Mill Creek",
    "state": "WA",
    "zip": "98012",
    "company_id": "8275123881",
    "school_key": "seattledentalassistant",
    "lat": 47.841376,
    "lng": -122.198939,
    "area_hub_lat": 47.8600795,
    "area_hub_lng": -122.2206505,
    "area_hub_city": "seattle",
    "type": "Dental"
  },
  {
    "name": "Mill Creek Dental Assistant School",
    "address": "15130 Main St., STE 210",
    "city": "Mill Creek",
    "state": "WA",
    "zip": "98012",
    "company_id": "8275123881",
    "school_key": "millcreekdentalassistant",
    "lat": 47.841376,
    "lng": -122.198939,
    "area_hub_lat": 47.841376,
    "area_hub_lng": -122.198939,
    "area_hub_city": "seattle",
    "type": "Dental"
  },
  {
    "name": "Shreveport Dental Assistant School",
    "address": "2015 East 70th Street",
    "city": "Shreveport",
    "state": "LA",
    "zip": "71105",
    "company_id": "2914355152",
    "school_key": "shreveportdentalassistant",
    "lat": 32.378491,
    "lng": -93.730669,
    "area_hub_lat": 32.378491,
    "area_hub_lng": -93.730669,
    "area_hub_city": "shreveport",
    "type": "Dental"
  },
  {
    "name": "South Bend Dental Assistant School",
    "address": "17490 IN-23",
    "city": "South Bend",
    "state": "IN",
    "zip": "46635",
    "company_id": "2914366800",
    "school_key": "southbenddentalassistant",
    "lat": 41.714357,
    "lng": -86.201743,
    "area_hub_lat": 41.714357,
    "area_hub_lng": -86.201743,
    "area_hub_city": "southbend",
    "type": "Dental"
  },
  {
    "name": "Spokane Dental Assistant School - North",
    "address": "6817 N. Cedar Rd., Suite 201",
    "city": "Spokane",
    "state": "WA",
    "zip": "99208",
    "company_id": "3053154704",
    "school_key": "spokanedentalassistant",
    "lat": 47.785576,
    "lng": -117.452251,
    "area_hub_lat": 47.785576,
    "area_hub_lng": -117.452251,
    "area_hub_city": "spokane",
    "type": "Dental"
  },
  {
    "name": "St. John Dental Assistant School - Wicker Ave",
    "address": "9270 Wicker Ave, Suite F",
    "city": "St. John",
    "state": "IN",
    "zip": "46373",
    "company_id": "3052750461",
    "school_key": "stjohndentalassistant",
    "lat": 41.448355,
    "lng": -87.467901,
    "area_hub_lat": 41.448355,
    "area_hub_lng": -87.467901,
    "area_hub_city": "st-john",
    "type": "Dental"
  },
  {
    "name": "Tacoma Dental Assistant School - Federal Way",
    "address": "1718 S 288th St",
    "city": "Federal Way",
    "state": "WA",
    "zip": "98003",
    "company_id": "2914359487",
    "school_key": "tacomadentalassistant",
    "lat": 47.303057,
    "lng": -122.317755,
    "area_hub_lat": 47.273006,
    "area_hub_lng": -122.299712,
    "area_hub_city": "tacoma",
    "type": "Dental"
  },
  {
    "name": "Tacoma Dental Assistant School - Puyallup",
    "address": "2903 E Main Street",
    "city": "Puyallup",
    "state": "WA",
    "zip": "98372",
    "company_id": "5953745673",
    "school_key": "tacomadentalassistant",
    "lat": 47.205607,
    "lng": -122.266088,
    "area_hub_lat": 47.273006,
    "area_hub_lng": -122.299712,
    "area_hub_city": "tacoma",
    "type": "Dental"
  },
  {
    "name": "Puyallup Dental Assistant School",
    "address": "2903 E Main Street",
    "city": "Puyallup",
    "state": "WA",
    "zip": "98372",
    "company_id": "5953745673",
    "school_key": "puyallupdentalassistant",
    "lat": 47.205607,
    "lng": -122.266088,
    "area_hub_lat": 47.205607,
    "area_hub_lng": -122.266088,
    "area_hub_city": "tacoma",
    "type": "Dental"
  },
  {
    "name": "Tucson Dental Assistant School - Midtown",
    "address": "1575 N. Swan Rd. #100",
    "city": "Tucson",
    "state": "AZ",
    "zip": "85712",
    "company_id": "8826078036",
    "school_key": "tucsondentalassistantschool",
    "lat": 32.252876,
    "lng": -110.886584,
    "area_hub_lat": 32.252876,
    "area_hub_lng": -110.886584,
    "area_hub_city": "tucson",
    "type": "Dental"
  },
  {
    "name": "Tulsa Dental Assistant School",
    "address": "2105 E. 15th Street",
    "city": "Tulsa",
    "state": "OK",
    "zip": "74104",
    "company_id": "2912872370",
    "school_key": "tulsadentalassistant",
    "lat": 36.146467,
    "lng": -95.954003,
    "area_hub_lat": 36.146467,
    "area_hub_lng": -95.954003,
    "area_hub_city": "tulsa",
    "type": "Dental"
  },
  {
    "name": "Tulsa Medical Assistant School",
    "address": "7901 S. Sheridan",
    "city": "Tulsa",
    "state": "OK",
    "zip": "74133",
    "company_id": "6532767906",
    "school_key": "tulsamedicalassistant",
    "lat": 36.039275,
    "lng": -95.877463,
    "area_hub_lat": 36.039275,
    "area_hub_lng": -95.877463,
    "area_hub_city": "tulsa",
    "type": "Medical"
  },
  {
    "name": "Waco Medical Assistant School",
    "address": "7125 New Sanger Rd.",
    "city": "Waco",
    "state": "TX",
    "zip": "76712",
    "company_id": "8932019102",
    "school_key": "wacomedicalassistantschool",
    "lat": 31.526544,
    "lng": -97.261231,
    "area_hub_lat": 31.526544,
    "area_hub_lng": -97.261231,
    "area_hub_city": "waco",
    "type": "Medical"
  },
  {
    "name": "Wichita Falls Medical Assistant School",
    "address": "1408 8th St.",
    "city": "Wichita Falls",
    "state": "TX",
    "zip": "76301",
    "company_id": "2914879374",
    "school_key": "wichitafallsmedicalassistant",
    "lat": 33.905613,
    "lng": -98.47994,
    "area_hub_lat": 33.905613,
    "area_hub_lng": -98.47994,
    "area_hub_city": "wichita-falls",
    "type": "Medical"
  },
  {
    "name": "Zollege Dental Assistant Program - Abilene",
    "address": "4741 Buffalo Gap Rd.",
    "city": "Abilene",
    "state": "TX",
    "zip": "79606",
    "company_id": "2918054557",
    "school_key": "abilenedentalassistantschool",
    "lat": 32.362767,
    "lng": -99.817334,
    "area_hub_lat": 32.362767,
    "area_hub_lng": -99.817334,
    "area_hub_city": "abilene",
    "type": "Dental"
  },
  {
    "name": "Zollege Dental Assistant Program - Austin Circle C",
    "address": "9600 Escarpment Blvd. #770",
    "city": "Austin",
    "state": "TX",
    "zip": "78749",
    "company_id": "2914808247",
    "school_key": "austindentalassistantschool",
    "lat": 30.216178,
    "lng": -97.855848,
    "area_hub_lat": 30.434443,
    "area_hub_lng": -97.769226,
    "area_hub_city": "austin",
    "type": "Dental",
    "zoom": "10"
  },
  {
    "name": "Zollege Dental Assistant Program - Austin Menchaca",
    "address": "8701 Menchaca Rd. Bldg. 3, STE 200",
    "city": "Austin",
    "state": "TX",
    "zip": "78748",
    "company_id": "8275126582",
    "school_key": "austindentalassistantschool",
    "lat": 30.166435,
    "lng": -97.82339,
    "area_hub_lat": 30.434443,
    "area_hub_lng": -97.769226,
    "area_hub_city": "austin",
    "type": "Dental",
    "zoom": "10"
  },
  {
    "name": "Zollege Dental Assistant Program - College Station",
    "address": "219 Rock Prairie Rd., Ste. 100",
    "city": "College Station",
    "state": "TX",
    "zip": "77845",
    "company_id": "2914355151",
    "school_key": "collegestationdentalassistant",
    "lat": 30.562014,
    "lng": -96.2739,
    "area_hub_lat": 30.562014,
    "area_hub_lng": -96.2739,
    "area_hub_city": "college-station",
    "type": "Dental"
  },
  {
    "name": "Zollege Dental Assistant Program - Dallas Lakewood",
    "address": "2014 Skillman Street",
    "city": "Dallas",
    "state": "TX",
    "zip": "75214",
    "company_id": "2914397924",
    "school_key": "dallasdentalassistantschool",
    "lat": 32.828494,
    "lng": -96.745968,
    "area_hub_lat": 32.870163,
    "area_hub_lng": -96.66685,
    "area_hub_city": "dallas",
    "type": "Dental"
  },
  {
    "name": "Zollege Dental Assistant Program - Denton",
    "address": "721 I-35E S. Ste 206",
    "city": "Denton",
    "state": "TX",
    "zip": "76205",
    "company_id": "4710312778",
    "school_key": "dallasdentalassistantschool",
    "lat": 33.192632,
    "lng": -97.129266,
    "area_hub_lat": 32.870163,
    "area_hub_lng": -96.66685,
    "area_hub_city": "dallas",
    "type": "Dental"
  },
  {
    "name": "Zollege Dental Assistant Program - Duncanville",
    "address": "427 W. Wheatland Road",
    "city": "Duncanville",
    "state": "TX",
    "zip": "75116",
    "company_id": "6533269534",
    "school_key": "dallasdentalassistantschool",
    "lat": 32.66066,
    "lng": -96.911882,
    "area_hub_lat": 32.870163,
    "area_hub_lng": -96.66685,
    "area_hub_city": "dallas",
    "type": "Dental"
  },
  {
    "name": "Zollege Dental Assistant Program - Duncanville",
    "address": "427 W. Wheatland Road",
    "city": "Duncanville",
    "state": "TX",
    "zip": "75116",
    "company_id": "6533269534",
    "school_key": "duncanvilledentalassistant",
    "lat": 32.66066,
    "lng": -96.911882,
    "area_hub_lat": 32.66066,
    "area_hub_lng": -96.911882,
    "area_hub_city": "dallas",
    "type": "Dental"
  },
  {
    "name": "Zollege Dental Assistant Program - Georgetown",
    "address": "3011 Dawn Dr., Suite 105",
    "city": "Georgetown",
    "state": "TX",
    "zip": "78628",
    "company_id": "9969865097",
    "school_key": "austindentalassistantschool",
    "lat": 30.664543,
    "lng": -97.778616,
    "area_hub_lat": 30.434443,
    "area_hub_lng": -97.769226,
    "area_hub_city": "austin",
    "type": "Dental",
    "zoom": "10"
  },
  {
    "name": "Zollege Dental Assistant Program - Georgetown",
    "address": "3011 Dawn Dr., Suite 105",
    "city": "Georgetown",
    "state": "TX",
    "zip": "78628",
    "company_id": "9969865097",
    "school_key": "georgetowndentalassistant",
    "lat": 30.664543,
    "lng": -97.778616,
    "area_hub_lat": 30.664543,
    "area_hub_lng": -97.778616,
    "area_hub_city": "austin",
    "type": "Dental",
    "zoom": "10"
  },
  {
    "name": "Zollege Dental Assistant Program - Grapevine",
    "address": "2321 Ira E. Woods #100",
    "city": "Grapevine",
    "state": "TX",
    "zip": "76051",
    "company_id": "2914333796",
    "school_key": "dallasdentalassistantschool",
    "lat": 32.925765,
    "lng": -97.071545,
    "area_hub_lat": 32.870163,
    "area_hub_lng": -96.66685,
    "area_hub_city": "dallas",
    "type": "Dental"
  },
  {
    "name": "Zollege Dental Assistant Program - Grapevine",
    "address": "2321 Ira E. Woods #100",
    "city": "Grapevine",
    "state": "TX",
    "zip": "76051",
    "company_id": "2914333796",
    "school_key": "grapevinedentalassistant",
    "lat": 32.925765,
    "lng": -97.071545,
    "area_hub_lat": 32.925765,
    "area_hub_lng": -97.071545,
    "area_hub_city": "dallas",
    "type": "Dental"
  },
  {
    "name": "Zollege Dental Assistant Program - Houston Cypress",
    "address": "15103 Mason Rd., Suite C-5",
    "city": "Cypress",
    "state": "TX",
    "zip": "77433",
    "company_id": "9969878151",
    "school_key": "houstondentalassistant",
    "lat": 29.940612,
    "lng": -95.737997,
    "area_hub_lat": 29.769063,
    "area_hub_lng": -95.372218,
    "area_hub_city": "houston",
    "type": "Dental"
  },
  {
    "name": "Zollege Dental Assistant Program - Houston Katy",
    "address": "25900 Cinco Ranch Blvd.",
    "city": "Houston",
    "state": "TX",
    "zip": "77063",
    "company_id": "2914383633",
    "school_key": "houstondentalassistant",
    "lat": 29.743948,
    "lng": -95.830502,
    "area_hub_lat": 29.769063,
    "area_hub_lng": -95.372218,
    "area_hub_city": "houston",
    "type": "Dental"
  },
  {
    "name": "Zollege Dental Assistant Program - Houston Pearland",
    "address": "2110 Pearland Pkwy, Suite 132",
    "city": "Pearland",
    "state": "TX",
    "zip": "77581",
    "company_id": "8732903766",
    "school_key": "houstondentalassistant",
    "lat": 29.561597,
    "lng": -95.279759,
    "area_hub_lat": 29.769063,
    "area_hub_lng": -95.372218,
    "area_hub_city": "houston",
    "type": "Dental"
  },
  {
    "name": "Zollege Dental Assistant Program - Houston Spring",
    "address": "20423 Kuykendahl Rd., Suite 600",
    "city": "Spring",
    "state": "TX",
    "zip": "77379",
    "company_id": "4437274330",
    "school_key": "houstondentalassistant",
    "lat": 30.040467,
    "lng": -95.529001,
    "area_hub_lat": 29.769063,
    "area_hub_lng": -95.372218,
    "area_hub_city": "houston",
    "type": "Dental"
  },
  {
    "name": "Zollege Dental Assistant Program - Houston Sugar Land",
    "address": "15921 City Walk",
    "city": "Sugar Land",
    "state": "TX",
    "zip": "77479",
    "company_id": "8730816841",
    "school_key": "houstondentalassistant",
    "lat": 29.566996,
    "lng": -95.636016,
    "area_hub_lat": 29.769063,
    "area_hub_lng": -95.372218,
    "area_hub_city": "houston",
    "type": "Dental"
  },
  {
    "name": "Zollege Dental Assistant Program - Leander",
    "address": "2906 S Bagdad Rd UNIT 100",
    "city": "Leander",
    "state": "TX",
    "zip": "78641",
    "company_id": "3053133511",
    "school_key": "austindentalassistantschool",
    "lat": 30.562557,
    "lng": -97.907846,
    "area_hub_lat": 30.434443,
    "area_hub_lng": -97.769226,
    "area_hub_city": "austin",
    "type": "Dental",
    "zoom": "10"
  },
  {
    "name": "Zollege Dental Assistant Program - Lubbock",
    "address": "4222 98th St.",
    "city": "Lubbock",
    "state": "TX",
    "zip": "79423",
    "company_id": "2914359490",
    "school_key": "lubbockdentalassistantschool",
    "lat": 33.439976,
    "lng": -101.855463,
    "area_hub_lat": 33.439976,
    "area_hub_lng": -101.855463,
    "area_hub_city": "lubbock",
    "type": "Dental"
  },
  {
    "name": "Zollege Dental Assistant Program - Mesquite",
    "address": "182 South Collins Road, Suite 700",
    "city": "Sunnyvale",
    "state": "TX",
    "zip": "75182",
    "company_id": "3053773412",
    "school_key": "dallasdentalassistantschool",
    "lat": 32.800525,
    "lng": -96.547577,
    "area_hub_lat": 32.870163,
    "area_hub_lng": -96.66685,
    "area_hub_city": "dallas",
    "type": "Dental"
  },
  {
    "name": "Zollege Dental Assistant Program - Mesquite",
    "address": "182 South Collins Road, Suite 700",
    "city": "Sunnyvale",
    "state": "TX",
    "zip": "75182",
    "company_id": "3053773412",
    "school_key": "mesquitedentalassistant",
    "lat": 32.800525,
    "lng": -96.547577,
    "area_hub_lat": 32.800525,
    "area_hub_lng": -96.547577,
    "area_hub_city": "dallas",
    "type": "Dental"
  },
  {
    "name": "Zollege Dental Assistant Program - McKinney",
    "address": "4700 West Eldorado Pkwy, Ste. 200",
    "city": "McKinney",
    "state": "TX",
    "zip": "75070",
    "company_id": "2914381775",
    "school_key": "dallasdentalassistantschool",
    "lat": 33.1740803,
    "lng": -96.6839425,
    "area_hub_lat": 32.870163,
    "area_hub_lng": -96.66685,
    "type": "Dental",
    "zoom": 9
  },
  {
    "name": "Zollege Dental Assistant Program - McKinney",
    "address": "4700 West Eldorado Pkwy, Ste. 200",
    "city": "McKinney",
    "state": "TX",
    "zip": "75070",
    "company_id": "2914381775",
    "school_key": "mckinneydentalassistant",
    "lat": 33.1740803,
    "lng": -96.6839425,
    "area_hub_lat": 33.1740803,
    "area_hub_lng": -96.6839425,
    "type": "Dental",
    "zoom": 10
  },
  {
    "name": "Zollege Dental Assistant Program - Nacogdoches",
    "address": "4703 NE Stallings Drive",
    "city": "Nacogdoches",
    "state": "TX",
    "zip": "75965",
    "company_id": "2914355161",
    "school_key": "nacogdochesdentalassistant",
    "lat": 31.723324,
    "lng": -94.628592,
    "area_hub_lat": 31.723324,
    "area_hub_lng": -94.628592,
    "area_hub_city": "nacogdoches",
    "type": "Dental"
  },
  {
    "name": "Zollege Dental Assistant Program - New Braunfels",
    "address": "2732 Big Oak",
    "city": "New Braunfels",
    "state": "TX",
    "zip": "78132",
    "company_id": "2914092264",
    "school_key": "newbraunfelsdentalassistant",
    "lat": 29.758817,
    "lng": -98.191068,
    "area_hub_lat": 29.758817,
    "area_hub_lng": -98.191068,
    "area_hub_city": "new-braunfels",
    "type": "Dental"
  },
  {
    "name": "Zollege Dental Assistant Program - Odessa",
    "address": "621 E 7th Street",
    "city": "Odessa",
    "state": "TX",
    "zip": "79761",
    "company_id": "2914381780",
    "school_key": "odessadentalassistant",
    "lat": 31.855051,
    "lng": -102.350647,
    "area_hub_lat": 31.855051,
    "area_hub_lng": -102.350647,
    "area_hub_city": "odessa",
    "type": "Dental"
  },
  {
    "name": "Zollege Dental Assistant Program - Plano",
    "address": "424 Maplelawn Drive",
    "city": "Plano",
    "state": "TX",
    "zip": "75075",
    "company_id": "3053133508",
    "school_key": "dallasdentalassistantschool",
    "lat": 33.021268,
    "lng": -96.741558,
    "area_hub_lat": 32.870163,
    "area_hub_lng": -96.66685,
    "area_hub_city": "dallas",
    "type": "Dental"
  },
  {
    "name": "Zollege Dental Assistant Program - Plano",
    "address": "424 Maplelawn Drive",
    "city": "Plano",
    "state": "TX",
    "zip": "75075",
    "company_id": "3053133508",
    "school_key": "planodentalassistant",
    "lat": 33.021268,
    "lng": -96.741558,
    "area_hub_lat": 33.021268,
    "area_hub_lng": -96.741558,
    "area_hub_city": "dallas",
    "type": "Dental"
  },
  {
    "name": "Zollege Dental Assistant Program - Round Rock",
    "address": "16 Chisholm Trail",
    "city": "Round Rock",
    "state": "TX",
    "zip": "78681",
    "company_id": "3052750459",
    "school_key": "austindentalassistantschool",
    "lat": 30.534424,
    "lng": -97.725741,
    "area_hub_lat": 30.434443,
    "area_hub_lng": -97.769226,
    "area_hub_city": "austin",
    "type": "Dental",
    "zoom": "10"
  },
  {
    "name": "Zollege Dental Assistant Program - Round Rock",
    "address": "16 Chisholm Trail",
    "city": "Round Rock",
    "state": "TX",
    "zip": "78681",
    "company_id": "3052750459",
    "school_key": "roundrockdentalassistant",
    "lat": 30.534424,
    "lng": -97.725741,
    "area_hub_lat": 30.534424,
    "area_hub_lng": -97.725741,
    "area_hub_city": "austin",
    "type": "Dental",
    "zoom": "10"
  },
  {
    "name": "Zollege Dental Assistant Program - San Antonio Northeast",
    "address": "16131 Nacogdoches Rd.",
    "city": "San Antonio",
    "state": "TX",
    "zip": "78247",
    "company_id": "4597728040",
    "school_key": "sanantoniodentalassistantschool",
    "lat": 29.585862,
    "lng": -98.406811,
    "area_hub_lat": 29.554293,
    "area_hub_lng": -98.485981,
    "area_hub_city": "san-antonio",
    "type": "Dental"
  },
  {
    "name": "Zollege Dental Assistant Program - San Antonio Northwest",
    "address": "14603 Huebner Rd., Bldg. 14",
    "city": "San Antonio",
    "state": "TX",
    "zip": "78256",
    "company_id": "2914808244",
    "school_key": "sanantoniodentalassistantschool",
    "lat": 29.546515,
    "lng": -98.557207,
    "area_hub_lat": 29.554293,
    "area_hub_lng": -98.485981,
    "area_hub_city": "san-antonio",
    "type": "Dental"
  },
  {
    "name": "Zollege Dental Assistant Program - San Antonio Southeast",
    "address": "3402 S. Gevers St.",
    "city": "San Antonio",
    "state": "TX",
    "zip": "78210",
    "company_id": "9912608426",
    "school_key": "sanantoniodentalassistantschool",
    "lat": 29.395776,
    "lng": -98.464401,
    "area_hub_lat": 29.554293,
    "area_hub_lng": -98.485981,
    "area_hub_city": "san-antonio",
    "type": "Dental"
  },
  {
    "name": "Zollege Dental Assistant Program - Temple",
    "address": "5519 SW H K, Dodgen Loop",
    "city": "Temple",
    "state": "TX",
    "zip": "76502",
    "company_id": "2914355159",
    "school_key": "templedentalassistantschool",
    "lat": 31.104022,
    "lng": -97.412045,
    "area_hub_lat": 31.104022,
    "area_hub_lng": -97.412045,
    "area_hub_city": "temple",
    "type": "Dental"
  },
  {
    "name": "Zollege Dental Assistant Program - Tyler",
    "address": "5011 Troup Hwy, Ste 700",
    "city": "Tyler",
    "state": "TX",
    "zip": "75707",
    "company_id": "2914381773",
    "school_key": "tylerdentalassistant",
    "lat": 32.301709,
    "lng": -95.177976,
    "area_hub_lat": 32.301709,
    "area_hub_lng": -95.177976,
    "area_hub_city": "tyler",
    "type": "Dental"
  },
  {
    "name": "Zollege Dental Assistant Program - Waco",
    "address": "4000 Bellmead Dr",
    "city": "Waco",
    "state": "TX",
    "zip": "76705",
    "company_id": "2914333793",
    "school_key": "dentalassistantschoolwaco",
    "lat": 31.620914,
    "lng": -97.098526,
    "area_hub_lat": 31.620914,
    "area_hub_lng": -97.098526,
    "area_hub_city": "waco",
    "type": "Dental"
  },
  {
    "name": "Zollege Dental Assistant Program - Wichita Falls",
    "address": "2515 E Elliott Street",
    "city": "Wichita Falls",
    "state": "TX",
    "zip": "76308",
    "company_id": "2912872379",
    "school_key": "wichitafallsdentalassistant",
    "lat": 33.852942,
    "lng": -98.54073,
    "area_hub_lat": 33.852942,
    "area_hub_lng": -98.54073,
    "area_hub_city": "wichita-falls",
    "type": "Dental"
  }
]